Assetnumber,AssetName,AssetType,ConstructionType,Maintainance State,Buildyear,Maintainer,Owner,Status,Width,Length,Area,Location,Latitude,Longitude,Passage road-width,Passage road-height,Passage sail-width,Passage sail-height,Technical lifespan expires,OBJECT_GUID,Area,Connection Type,Neighborhood,City,RD-X,RD-Y
2526,Eerste Waterbrug,Fiets-voetbrug,COMPOSIET,1. Perfect,2017,SB AIB,Gemeente Almere,Existing,1.9,36.1,68.4,Leeghwaterplas,52.0665527,4.3213072,1.5,,5.3,1.5,2100,29D8A296D26BC5C5E0500A0A57326FCA,Waterpad,Groengebieden/Parken,Waterwijk,Almere Stad,144300.659,488533.626
2527,Tweede Waterbrug,Fiets-voetbrug,COMPOSIET,1. Perfect,2017,SB AIB,Gemeente Almere,Existing,2,44,88,Leeghwaterplas,52.0665527,4.3213072,1.5,,5,1.5,2067,29D8A2970392C5C5E0500A0A57326FCA,Waterpad,Groengebieden/Parken,Waterwijk,Almere Stad,144278.064,488455.798
2528,Derde Waterbrug,Fiets-voetbrug,COMPOSIET,1. Perfect,2016,SB AIB,Gemeente Almere,Existing,2,59,118,Leeghwaterplas,52.0665527,4.3213072,1.5,,5.5,1.5,2067,29D8A296D26CC5C5E0500A0A57326FCA,Waterpad,Groengebieden/Parken,Waterwijk,Almere Stad,144214.982,488373.779
1080,Mesurierbrug,Verkeersbrug,Concrete,1. Perfect,2016,SB AIB,Gemeente Almere,Existing,10,20,200,Mesurierbrug,38.7823829,-90.527626,3,,16,2,2096,29D8A297033EC5C5E0500A0A57326FCA,nvt,Groengebieden/Parken,De Wierden,Almere Haven,142411.091,483683.314
2003,Limburgsebrug,Fiets-voetbrug,Concrete,1. Perfect,2021,Stadsruimte,Gemeente Almere,plan,10.2,30.5,311.1,Weerwater_Stedenwijk,52.3595569,5.2046047,7.6,,5,1.73,2102,DA7EB5EF-B069-4970-A9B8-4404A0B813F4,Fontanapad,Groengebieden/Parken,overig Almere Stad,Almere Stad,143034.9833,485622.4029
2787,Rapsodiebrug,Verkeersbrug,Concrete,1. Perfect,1990,SB AIB,Gemeente Almere,Existing,6.5,15.5,100.75,Rapsodiebrug,52.3756972,5.1897292,3.5,,12.6,1.74,2100,318630A66AA13498E0535B320A0A7C56,Divertimentostraat,Groengebieden/Parken,Muziekwijk,Almere Stad,141552.837,487548.197
3031,Dagenbrug,Fiets-voetbrug,Concrete,1. Perfect,2015,SB AIB,Gemeente Almere,Existing,3.5,22,77,Gracht Jaap Edenpad 3,52.4061515,5.2710932,4,,4.5,2.5,2200,29D8A296D291C5C5E0500A0A57326FCA,Pirellipad,Groengebieden/Parken,Seizoenenbuurt,Almere Buiten,147275.569,490719.264
4133,,Verkeersbrug,Concrete,1. Perfect,2019,SB AIB,Gemeente Almere,Existing,0.1,0.1,0.01,Godendreef 2a,50.8627229,4.3536052,,,,,2109,86AEB5E3-8630-4A96-8E5E-9B21DF97A138,Godendreef,Buitengebied,overig Almere Poort,Almere Poort,139286.5214,486115.0406
4831,,Verkeersbrug,Concrete,1. Perfect,2020,SB AIB,Gemeente Almere,Existing,12,25,300,Bosgebied Almere Poort 1g,52.3431463,5.1454804,0,0,0,0,2110,F8D2F8EC-13DB-4BC3-BC61-9E4CDE2E1258,Van Wagtendonkpad,Groengebieden/Parken,overig Almere Poort,Almere Poort,139469.8742,486191.6833
0012,Microfoonbrug,Fiets-voetbrug,Steel,1. Perfect,2017,Staatsbosbeheer,Gemeente Almere,Existing,5,17,85,A6_Kromslootpark 2,52.3373845,5.177393,2.4,,5,2,2067,29D8A296D925C5C5E0500A0A57326FCA,Rechte wetering,Groengebieden/Parken,overig Almere Haven,Almere Haven,141019.4283,484004.5408
1037,Gildebroeder,Fiets-voetbrug,Steel,1. Perfect,2018,SB AIB,Gemeente Almere,Existing,5,26.4,132.4,Gildebroeder,51.2922761,5.315738,,,,,2068,5DC71BC0-2C37-4E08-89A3-58FB2E937ACB,Gildemark,Groengebieden/Parken,De Marken,Almere Haven,144116.6735,484380.9295
1041,Krombrug,Fiets-voetbrug,Steel,1. Perfect,2019,SB AIB,Gemeente Almere,Existing,5,27.9,139.5,Krombrug,52.3447643,5.2152775,5,,6.5,2.3,2069,6CE33E9C-CE7B-4DCB-BD7D-C22BBF5568FB,Brongouw,Groengebieden/Parken,De Gouwen,Almere Haven,143279.9351,484112.1069
1044,Boerderijbrug,Fiets-voetbrug,Steel,1. Perfect,2018,SB AIB,Gemeente Almere,Existing,5,37,185,Boerderijbrug,52.3419034,5.215563,,,4.8,2,2068,E43340BC-13F2-4666-93FD-C9C2CA685565,Marktgracht,Groengebieden/Parken,De Hoven,Almere Haven,143307.3093,483795.7762
1081,,Fiets-voetbrug,Steel,1. Perfect,2019,SB AIB,Gemeente Almere,Existing,2.3,12,21.6,Meerveldstraat 2,52.3435726,5.2023355,1.8,,6.5,1.75,2069,96AB9B0E-C0BD-4693-856B-9DB564A91DD7,Marktgracht,Groengebieden/Parken,De Laren,Almere Haven,142486.8879,483919.1279
1082,,Fiets-voetbrug,Steel,1. Perfect,2019,SB AIB,Gemeente Almere,Existing,3.6,12,36,Meerveldstraat 2,52.3435726,5.2023355,3,,6.5,1.75,2069,03FD2867-D4EA-47E9-97BD-581ADB8BD1CC,Meerveldstraat,Groengebieden/Parken,De Laren,Almere Haven,142573.0333,484021.1692
2005,Tegelenbrug,Fiets-voetbrug,Steel,1. Perfect,2014,SB AIB,Gemeente Almere,Existing,5,25.5,127.5,Mookbrug,52.3614139,5.2081024,4.8,,10.5,2,2300,29D8A296D205C5C5E0500A0A57326FCA,Vaalsgracht,Groengebieden/Parken,Stedenwijk,Almere Stad,142875.023,485898.058
2012,Handbalbrug,Fiets-voetbrug,Steel,1. Perfect,2016,SB AIB,Gemeente Almere,Existing,5,24,120,Handbalbrug,,,5,,10.5,2,2300,29D8A297034AC5C5E0500A0A57326FCA,Burgerspad,Groengebieden/Parken,Stedenwijk,Almere Stad,142149.0653,485459.3985
2021,Zeistbrug,Fiets-voetbrug,Steel,1. Perfect,2016,SB AIB,Gemeente Almere,Existing,5.1,24,122.4,Breukelenbrug,40.6869344,-74.0016323,4.8,,9,1.7,2300,29D8A296D20DC5C5E0500A0A57326FCA,Breukelengracht,Groengebieden/Parken,Stedenwijk,Almere Stad,142672.286,486146.099
2032,Hinkelbrug,Fiets-voetbrug,Steel,1. Perfect,2014,SB AIB,Gemeente Almere,Existing,5.2,24,125,Amsterdambrug,52.3635898,4.9024018,5.2,,9.5,2.2,2300,29D8A2970354C5C5E0500A0A57326FCA,Den Uylpad,Groengebieden/Parken,Stedenwijk,Almere Stad,142723.096,486875.369
2758,Algerabrug,Fiets-voetbrug,Steel,1. Perfect,2018,SB AIB,Gemeente Almere,Existing,5.4,26,140.4,Algerabrug,51.9169283,4.5792456,5,,10,2,2068,486B057D-1072-428B-A0B5-98D349B0456C,J. Algerapad,Groengebieden/Parken,Staatsliedenwijk,Almere Stad,143164.1646,487573.6412
2772,Bliklopenbrug,Fiets-voetbrug,Steel,1. Perfect,2018,SB AIB,Gemeente Almere,Existing,3,24.8,74.4,Schommelbrug,52.3747266,5.2002742,,,5,1.75,2068,4CDEA820-6D5C-494F-BCBF-64787ADEA2AF,Beatrixpad,Groengebieden/Parken,Kruidenwijk,Almere Stad,142120.7429,487596.1578
2781,Krijgertjebrug,Fiets-voetbrug,Steel,1. Perfect,2014,SB AIB,Gemeente Almere,Existing,5.1,33.3,170,Krijgertjebrug,52.3827042,5.1902592,3,,7,2.2,2200,29D8A29703A7C5C5E0500A0A57326FCA,Clauspad,Groengebieden/Parken,Kruidenwijk,Almere Stad,141577.004,488338.913
2809,Bergklaverbrug,Fiets-voetbrug,Steel,1. Perfect,2015,SB AIB,Gemeente Almere,Existing,3,25,75,Bergklaverbrug,52.3824193,5.2100489,5,,10.5,1.8,2200,29D8A296D1E9C5C5E0500A0A57326FCA,Bergklaverpad,Groengebieden/Parken,Kruidenwijk,Almere Stad,142932.195,488303.289
2912,2e Trekvogelbrug,Fiets-voetbrug,Steel,1. Perfect,2016,Flevolandschap,Gemeente Almere,Existing,3.6,10,36,Lepelaarplassen,52.4056692,5.2157733,3.1,,7.8,1.1,2066,29D8A296D1F9C5C5E0500A0A57326FCA,Trekvogelpad,Buitengebied,overig Almere Stad,Almere Stad,143960.3561,491855.0426
5016,E,Fiets-voetbrug,Steel,1. Perfect,2012,SB AIB,Gemeente Almere,Existing,3,23,69,Overgooische Zoom,52.3312476,5.2653635,2.8,,7,0.2,0,318630A66BF03498E0535B320A0A7C56,Kloosterbos,Groengebieden/Parken,Overgooi,Almere Haven,146687.4769,482663.5256
5030,,Fiets-voetbrug,Steel,1. Perfect,2012,SB AIB,Gemeente Almere,Existing,1.45,14.3,20.75,Gracht Zwaanplantsoen_Zomertortellaan,52.3407968,5.3092392,1.45,,1,1.5,0,318630A66BDD3498E0535B320A0A7C56,Boomvalkpad,Groengebieden/Parken,Vogelhorst,Almere Hout,149509.7669,483565.6248
0002,De Valreep,Verkeersbrug,Concrete,2. Good,1981,SB AIB,Gemeente Almere,Existing,20.8,14.2,295.4,Noorderdreef_A6,52.3509026,5.2170244,5.9,,,,2300,318630A66B603498E0535B320A0A7C56,Noorderdreef,Hoofdwegen,overig Almere Haven,Almere Haven,143404.549,484872.566
0008,Burgersbrug,Verkeersbrug,Concrete,2. Good,1981,SB AIB,Gemeente Almere,History,12.5,24.8,310,Spanningsveld 2,52.3555313,5.2041511,3.5,2.8,0,0,2200,318630A66B6C3498E0535B320A0A7C56,Paralleldreef,Groengebieden/Parken,overig Almere Stad,Almere Stad,142312.233,484950.04
1001,Hoekbrug,Verkeersbrug,Concrete,2. Good,1981,SB AIB,Gemeente Almere,Existing,9.6,22.5,216,Hoekbrug,-25.8028425,29.4496852,5.5,0,15,1.2,2100,318630A66B4D3498E0535B320A0A7C56,Marktgracht,Groengebieden/Parken,De Wierden,Almere Haven,142490.362,483378.67
1003,Kimbrug,Verkeersbrug,Concrete,2. Good,1981,SB AIB,Gemeente Almere,Existing,9.6,22.5,216,Kimbrug,40.4819697,-88.9426306,5.5,0,15,1.2,2100,318630A66B4F3498E0535B320A0A7C56,Marktgracht,Groengebieden/Parken,De Wierden,Almere Haven,142822.0215,483265.6091
1005,Strandbrug,Verkeersbrug,Concrete,2. Good,1977,SB AIB,Gemeente Almere,Existing,9.9,20.3,200.1,Zandbrug,52.0961735,5.1160987,0,0,9.5,2,2300,318630A66B503498E0535B320A0A7C56,Westerdreef,Groengebieden/Parken,De Wierden,Almere Haven,143079.5396,483234.6494
1008,Wierdenbrug,Verkeersbrug,Concrete,2. Good,1976,SB AIB,Gemeente Almere,Existing,8.8,21.3,187.4,Langsbrug,42.8903086,-84.3513631,0,0,10,1.2,2300,318630A66B483498E0535B320A0A7C56,Marktgracht,Groengebieden/Parken,De Hoven,Almere Haven,143274.1542,483225.5659
1009,Bivakbrug,Verkeersbrug,Concrete,2. Good,1976,SB AIB,Gemeente Almere,Existing,6.6,5.2,34.5,Schoolbrug,51.2191227,4.4270182,6,,4,1.3,2300,318630A66B733498E0535B320A0A7C56,Marktgracht,Groengebieden/Parken,Centrum Almere Haven,Almere Haven,143402.0049,483248.5775
1012,Kroegbrug,Verkeersbrug,Concrete,2. Good,1976,SB AIB,Gemeente Almere,Existing,3.7,5.8,22,Kroegbrug,52.3360948,5.2208837,3,,4.2,1.5,2300,318630A66B753498E0535B320A0A7C56,Kerkgracht,Groengebieden/Parken,Centrum Almere Haven,Almere Haven,143620.974,483129.251
1013,Kerkbrug,Verkeersbrug,Concrete,2. Good,1976,SB AIB,Gemeente Almere,Existing,3.7,5.8,22,Kroegbrug,52.3360948,5.2208837,3,,4.2,1.5,2300,318630A66B743498E0535B320A0A7C56,Kerkgracht,Groengebieden/Parken,Centrum Almere Haven,Almere Haven,143665.521,483152.678
1014,Raadhuisbrug,Verkeersbrug,Concrete,2. Good,1976,SB AIB,Gemeente Almere,Existing,8.8,5.4,48,Kroegbrug,52.3360948,5.2208837,4.8,,4.1,1.5,2300,318630A66B773498E0535B320A0A7C56,Kerkgracht,Groengebieden/Parken,Centrum Almere Haven,Almere Haven,143718.4753,483118.8849
1016,Wittebrug,Verkeersbrug,Concrete,2. Good,1976,SB AIB,Gemeente Almere,Existing,8.6,20.3,175,Hangbrug,38.4632471,-105.3224059,5,,18.5,2.6,2300,318630A66B5E3498E0535B320A0A7C56,Goedewerf,Groengebieden/Parken,De Werven,Almere Haven,144041.675,483085.173
1021,Zuidbrug,Verkeersbrug,Concrete,2. Good,1977,SB AIB,Gemeente Almere,Existing,21.2,27.5,583,Zuidbrug,50.7321998,4.2379488,4.8,2.8,17,2.6,2300,318630A66B643498E0535B320A0A7C56,Lange Wetering,Groengebieden/Parken,De Grienden,Almere Haven,144326.227,483347.827
1023,Griendenbrug,Verkeersbrug,Concrete,2. Good,1980,SB AIB,Gemeente Almere,Existing,9,26.3,237,Bosbrug,-26.2325897,28.2409671,7.2,,16.8,3,2300,318630A66B493498E0535B320A0A7C56,Lange Wetering,Groengebieden/Parken,De Grienden,Almere Haven,144714.209,483846.819
1025,Wervenbrug,Verkeersbrug,Concrete,2. Good,1976,SB AIB,Gemeente Almere,Existing,8.8,19.2,169,Uitlaatbrug,33.8676171,-118.2137036,7,,11.2,1,2300,318630A66B633498E0535B320A0A7C56,Marktgracht,Groengebieden/Parken,De Werven,Almere Haven,143955.114,483363.581
1029,Voorstraatbrug,Verkeersbrug,Concrete,2. Good,1976,SB AIB,Gemeente Almere,Existing,11.4,21.4,244,Voorstraatbrug,52.4944223,5.4819285,4.5,2.5,11,2,2300,318630A66B443498E0535B320A0A7C56,Marktgracht,Groengebieden/Parken,De Hoven,Almere Haven,143621.365,483650.398
1035,Vrijbrug,Verkeersbrug,Concrete,2. Good,1977,SB AIB,Gemeente Almere,Existing,9.4,18,169.2,Canadabrug,51.21234,3.20683,5.5,,13,1.1,2300,318630A66B4B3498E0535B320A0A7C56,Brugmark,Groengebieden/Parken,De Marken,Almere Haven,143896.327,484213.083
1036,Markenbrug,Verkeersbrug,Concrete,2. Good,1976,SB AIB,Gemeente Almere,Existing,8.8,13.8,121.4,Markenbrug,52.3471225,5.2253835,7,,9.1,1,2300,318630A66B553498E0535B320A0A7C56,Hofmark,Groengebieden/Parken,De Marken,Almere Haven,144017.059,484299.786
1039,De Meet,Verkeersbrug,Concrete,2. Good,1976,SB AIB,Gemeente Almere,Existing,22,34.1,750.2,Steigerdreef 1,52.3500931,5.226558,5.9,2.5,0,0,2300,318630A66B533498E0535B320A0A7C56,Noorderdreef,Hoofdwegen,De Steiger,Almere Haven,143591.055,484488.607
1042,Bobbelbrug,Verkeersbrug,Concrete,2. Good,1975,SB AIB,Gemeente Almere,Existing,11.1,21.5,238.7,Krombrug,52.3447643,5.2152775,0,2.4,,2,2300,318630A66B523498E0535B320A0A7C56,Polderhofpad,Groengebieden/Parken,De Gouwen,Almere Haven,143278.173,483945.395
1045,Gouwenbrug,Verkeersbrug,Concrete,2. Good,1976,SB AIB,Gemeente Almere,Existing,7.5,19.5,146.3,Boerderijbrug,52.3419034,5.215563,0,0,10,1,2300,318630A66B513498E0535B320A0A7C56,Marktgracht,Groengebieden/Parken,De Hoven,Almere Haven,143166.974,483774.529
1048,Westbrug,Verkeersbrug,Concrete,2. Good,1977,SB AIB,Gemeente Almere,Existing,10.4,20.4,212.2,Lobbrug,52.3422016,5.2082628,0,2.5,9.5,2,2300,318630A66B433498E0535B320A0A7C56,Marktgracht,Groengebieden/Parken,De Wierden,Almere Haven,142941.87,483750.5807
1049,Lobbrug,Verkeersbrug,Concrete,2. Good,1981,SB AIB,Gemeente Almere,Existing,9.5,14.5,137.8,Lobbrug,52.3422016,5.2082628,7.4,0,11,1.2,2100,318630A66B423498E0535B320A0A7C56,Marktgracht,Groengebieden/Parken,De Wierden,Almere Haven,142810.099,483818.876
1051,Jeugdlandbrug,Verkeersbrug,Concrete,2. Good,1980,SB AIB,Gemeente Almere,Existing,8.5,12.5,106.3,Leembrug,52.9269736,6.4206918,5,0,10,1.5,2300,318630A66AF63498E0535B320A0A7C56,Meerveldstraat,Groengebieden/Parken,De Wierden,Almere Haven,142589.904,484053.6546
1070,Tuibrug Hoge Vaart,Verkeersbrug,Concrete,2. Good,1993,SB AIB,Gemeente Almere,Existing,4,161.9,647.6,Hoge Vaart_Tuibrug 2,52.4022425,5.5644246,0,6,32.5,6,2100,318630A66B623498E0535B320A0A7C56,Hoge Vaart,Groengebieden/Parken,overig Almere Hout,Almere Hout,147299.469,485212.965
2002,Fontanabrug,Verkeersbrug,Concrete,2. Good,1981,SB AIB,Gemeente Almere,History,13,10.5,136.5,Oorweg_A6,,,7,,9,1.5,2100,318630A66BAA3498E0535B320A0A7C56,Fontanapad,Buitengebied,overig Almere Stad,Almere Stad,142951.79,485432.495
2004,Maastrichtbrug,Verkeersbrug,Concrete,2. Good,1982,SB AIB,Gemeente Almere,Existing,7.5,15,112.5,Maastrichtbrug,50.8494299,5.6962522,4.5,,13.5,2,2100,318630A66B713498E0535B320A0A7C56,Vaalsgracht,Groengebieden/Parken,Stedenwijk,Almere Stad,142929.016,485792.045
2006,Mookbrug,Verkeersbrug,Concrete,2. Good,1981,SB AIB,Gemeente Almere,Existing,10,12.5,125,Mookbrug,52.3614139,5.2081024,5.5,,10,2,2100,318630A66B683498E0535B320A0A7C56,Mookpad,Groengebieden/Parken,Stedenwijk,Almere Stad,142805.447,485957.779
2007,Geldersebrug,Verkeersbrug,Concrete,2. Good,1981,SB AIB,Gemeente Almere,Existing,10.5,12.5,131.3,Mookbrug,52.3614139,5.2081024,7,,10,2,2100,318630A66B673498E0535B320A0A7C56,Edestraat,Groengebieden/Parken,Stedenwijk,Almere Stad,142663.779,486006.391
2008,Rotterdambrug,Verkeersbrug,Concrete,2. Good,1981,SB AIB,Gemeente Almere,Existing,10,12.5,125,Rotterdambrug,51.909004,4.4871227,5.5,,10,1.5,2100,318630A66AAA3498E0535B320A0A7C56,Rotterdamweg,Groengebieden/Parken,Stedenwijk,Almere Stad,142612.26,485982.363
2009,Gorinchembrug,Verkeersbrug,Concrete,2. Good,1981,SB AIB,Gemeente Almere,Existing,8.5,15,127.5,Pijnackerbrug,,,5.5,,14,1.5,2100,318630A66B663498E0535B320A0A7C56,Gorinchemgracht,Groengebieden/Parken,Stedenwijk,Almere Stad,142543.095,485814.642
2011,Bredabrug,Verkeersbrug,Concrete,2. Good,1981,SB AIB,Gemeente Almere,Existing,8.5,15,127.5,Pijnackerbrug,,,5.5,,14,2,2100,318630A66B653498E0535B320A0A7C56,Gorinchemgracht,Groengebieden/Parken,Stedenwijk,Almere Stad,142293.655,485677.477
2015,Gooisekantpoort,Verkeersbrug,Concrete,2. Good,1981,SB AIB,Gemeente Almere,Existing,20,16.6,332,Havendreef_Gooisekant 2,52.3541626,5.192585,8.6,2.7,,,2100,318630A66B403498E0535B320A0A7C56,Havendreef,Hoofdwegen,Gooisekant,Almere Stad,141837.171,484980.121
2016,Veeregrachtpoort,Verkeersbrug,Concrete,2. Good,1980,SB AIB,Gemeente Almere,Existing,20,51.5,1030,Omroepbrug,52.3552876,5.1939758,7.4,,,,2300,318630A66B3F3498E0535B320A0A7C56,Havendreef,Groengebieden/Parken,Gooisekant,Almere Stad,141719.709,485220.901
2018,Purmerpoort,Verkeersbrug,Concrete,2. Good,1985,SB AIB,Gemeente Almere,Existing,9,10.5,94.5,Hollandsedreef_Hollandsekant 4,52.3657093,5.177203,5.6,2.6,0,0,2100,318630A66B473498E0535B320A0A7C56,Hollandsedreef,Hoofdwegen,Muziekwijk,Almere Stad,140621.888,486432.026
2025,Scarlattibrug,Verkeersbrug,Concrete,2. Good,1980,SB AIB,Gemeente Almere,Existing,9,47,427,Velsenpad,52.3668175,5.2051926,7,5,,,2300,318630A66AB03498E0535B320A0A7C56,Stedendreef,Woongebied,Stedenwijk,Almere Stad,142488.061,486501.744
2026,Amersfoortbrug,Verkeersbrug,Concrete,2. Good,1979,SB AIB,Gemeente Almere,Existing,8.5,11,94,Breukelengracht 1~30,52.3655002,5.2060451,5.5,,9,1.5,2300,318630A66AB23498E0535B320A0A7C56,Amersfoortweg,Woongebied,Stedenwijk,Almere Stad,142671.785,486416.783
2027,Velsenbrug,Verkeersbrug,Concrete,2. Good,1979,SB AIB,Gemeente Almere,Existing,3.5,11,39,Haarlembrug,52.3801553,4.6412026,3,,9,1.5,2300,318630A66AAF3498E0535B320A0A7C56,Velsenpad,Groengebieden/Parken,Stedenwijk,Almere Stad,142712.251,486529.578
2029,Haarlembrug,Verkeersbrug,Concrete,2. Good,1979,SB AIB,Gemeente Almere,Existing,5,10.5,52.5,Haarlembrug,52.3801553,4.6412026,4.5,,9,1.5,2300,318630A66AAD3498E0535B320A0A7C56,Alkmaargracht,Groengebieden/Parken,Stedenwijk,Almere Stad,142738.805,486629.845
2030,Alkmaarbrug,Verkeersbrug,Concrete,2. Good,1979,SB AIB,Gemeente Almere,Existing,5,10.5,52.5,Amsterdambrug,52.3635898,4.9024018,4.5,,9,1.5,2300,318630A66AAE3498E0535B320A0A7C56,Den Uylpad,Groengebieden/Parken,Stedenwijk,Almere Stad,142668.354,486675.874
2031,Amsterdambrug,Verkeersbrug,Concrete,2. Good,1979,SB AIB,Gemeente Almere,Existing,8.5,11,94,Amstelveenstraat_Gezondheidscentrum,52.3683154,5.2052011,5.5,,9,1.5,2300,318630A66AAC3498E0535B320A0A7C56,Den Uylpad,Woongebied,Stedenwijk,Almere Stad,142704.824,486790.051
2033,Plantsoenpoort,Verkeersbrug,Concrete,2. Good,1979,SB AIB,Gemeente Almere,Existing,19,22.5,427.5,Tikkertjebrug,52.3699497,5.2049736,3.7,,14,2.5,2300,318630A66AC33498E0535B320A0A7C56,Stedendreef,Groengebieden/Parken,Stedenwijk,Almere Stad,142527.5354,486893.2327
2039,Baanbrug,Verkeersbrug,Concrete,2. Good,1979,SB AIB,Gemeente Almere,Existing,13,28,364,Olstbrug,43.6227748,-87.7945323,3,3.6,5.5,2.3,2300,318630A66AC53498E0535B320A0A7C56,Olstgracht,Groengebieden/Parken,Stedenwijk,Almere Stad,143207.981,486876.509
2042,Coevordenbrug,Verkeersbrug,Concrete,2. Good,1979,SB AIB,Gemeente Almere,Existing,5.5,10.5,58,Giethoornbrug,52.3697189,5.2127326,4.8,,10,2.1,2300,318630A66BB73498E0535B320A0A7C56,Kolkplein,Groengebieden/Parken,Stedenwijk,Almere Stad,143109.336,486957.721
2043,Delfzijlbrug,Verkeersbrug,Concrete,2. Good,1979,SB AIB,Gemeente Almere,Existing,5.5,10.5,58,Ter Apelbrug,52.373123,5.2154187,4.8,,10,1.7,2300,318630A66AC43498E0535B320A0A7C56,Delfzijlsingel,Groengebieden/Parken,Stedenwijk,Almere Stad,143189.24,487096.863
2044,Ter Apelbrug,Verkeersbrug,Concrete,2. Good,1982,SB AIB,Gemeente Almere,Existing,5.5,10,55,Ter Apelbrug,52.373123,5.2154187,5,,10,1.3,2100,318630A66AAB3498E0535B320A0A7C56,Delfzijlsingel,Groengebieden/Parken,Stedenwijk,Almere Stad,143285.683,487254.022
2047,(fietsbrug Spoorbaanpad),Verkeersbrug,Concrete,2. Good,1990,SB AIB,Gemeente Almere,Existing,5.7,46.5,265.05,Stedendreef 1,52.372331,5.2021837,3.6,4.5,,,,318630A66B833498E0535B320A0A7C56,Stedendreef,Hoofdwegen,Muziekwijk,Almere Stad,142391.695,487147.219
2049,J.S.Bachbrug,Verkeersbrug,Concrete,2. Good,1986,SB AIB,Gemeente Almere,Existing,8.5,39,331.5,JS Bachbrug,42.1379851,-87.8405772,5,,13.5,2.3,2100,318630A66B2F3498E0535B320A0A7C56,J.S. Bachweg,Groengebieden/Parken,Muziekwijk,Almere Stad,142299.761,486787.989
2050,Vivaldibrug,Verkeersbrug,Concrete,2. Good,1986,SB AIB,Gemeente Almere,Existing,5.5,39,214.5,JS Bachbrug,42.1379851,-87.8405772,5,,13.5,2.3,2100,318630A66B303498E0535B320A0A7C56,Tsjaikowskypad,Groengebieden/Parken,Muziekwijk,Almere Stad,142207.141,486721.224
2052,Mozartbrug,Verkeersbrug,Concrete,2. Good,1986,SB AIB,Gemeente Almere,Existing,9.5,39,370.5,Cesar Franckbrug,44.947125,-93.298676,5.5,,13.5,2.3,2100,318630A66B313498E0535B320A0A7C56,Mozartweg,Groengebieden/Parken,Muziekwijk,Almere Stad,142049.79,486603.5
2053,Cesar Franckbrug,Verkeersbrug,Concrete,2. Good,1986,SB AIB,Gemeente Almere,Existing,8,39,312,Cesar Franckbrug,44.947125,-93.298676,4.5,,13.5,2.3,2100,318630A66B323498E0535B320A0A7C56,Cesar Franckweg,Groengebieden/Parken,Muziekwijk,Almere Stad,141883.04,486479.678
2054,Strawinskybrug,Verkeersbrug,Concrete,2. Good,1986,SB AIB,Gemeente Almere,Existing,5.5,39,214.5,Cesar Franckbrug,44.947125,-93.298676,5,,13.5,2.3,2100,318630A66B333498E0535B320A0A7C56,Strawinskypad,Groengebieden/Parken,Muziekwijk,Almere Stad,141815.35,486427.727
2055,H Andriessenbrug,Verkeersbrug,Concrete,2. Good,1986,SB AIB,Gemeente Almere,Existing,8,39,312,Hindemithbrug,,,4.2,,13.5,2.3,2100,318630A66B343498E0535B320A0A7C56,H. Andriessenweg,Groengebieden/Parken,Muziekwijk,Almere Stad,141757.519,486287.509
2056,Hindemitbrug,Verkeersbrug,Concrete,2. Good,1986,SB AIB,Gemeente Almere,Existing,5.5,39,214.5,Hindemithbrug,,,5,,13.5,2.3,2100,318630A66B353498E0535B320A0A7C56,Hindemithpad,Groengebieden/Parken,Muziekwijk,Almere Stad,141710.22,486149.558
2057,Schonbergbrug,Verkeersbrug,Concrete,2. Good,1986,SB AIB,Gemeente Almere,Existing,8,39,312,Hindemithbrug,,,4.2,,13.5,2.3,2100,318630A66B363498E0535B320A0A7C56,Schonbergweg,Groengebieden/Parken,Muziekwijk,Almere Stad,141695.635,486105.08
2058,J.Greshoffbrug,Verkeersbrug,Concrete,2. Good,1986,SB AIB,Gemeente Almere,Existing,8,36.6,232.8,Hindemithbrug,,,6,,13.5,3.3,2100,318630A66B373498E0535B320A0A7C56,Hollandsedreef,Groengebieden/Parken,Muziekwijk,Almere Stad,141649.225,485973.148
2059,Hildebrandbrug,Verkeersbrug,Concrete,2. Good,1994,SB AIB,Gemeente Almere,Existing,8,41.5,332,Hollandsedreef_Literatuurwijk 3,52.362043,5.1883573,7.2,4.3,,,2100,318630A66ABB3498E0535B320A0A7C56,Hollandsedreef,Hoofdwegen,Muziekwijk,Almere Stad,141468.303,486025.314
2062,2e Amersfoortbrug,Verkeersbrug,Concrete,2. Good,1979,SB AIB,Gemeente Almere,Existing,10,11.5,115,BB IJmuidenstraat,52.1082343,4.2800553,7,,9,1.5,2300,318630A66AB13498E0535B320A0A7C56,Amersfoortweg,Hoofdwegen,Stedenwijk,Almere Stad,142670.835,486439.648
2063,Binderijbrug,Verkeersbrug,Concrete,2. Good,1993,SB AIB,Gemeente Almere,Existing,5.6,13,72.8,Jacob van Maerlantstraat_Binderijbrug,51.685501,5.3225499,5.3,,7.68,2,2100,318630A66AE03498E0535B320A0A7C56,Spoorbaanpad,Groengebieden/Parken,Literatuurwijk,Almere Stad,140839.114,486046.372
2064,Couperusbrug,Verkeersbrug,Concrete,2. Good,1994,SB AIB,Gemeente Almere,Existing,8.6,15.2,130.7,Couperusbrug,40.5114885,-75.390458,5.5,,13.5,1.7,2100,318630A66B413498E0535B320A0A7C56,Couperusweg,Groengebieden/Parken,Literatuurwijk,Almere Stad,141602.671,485847.453
2065,Simon Vestdijkbrug,Verkeersbrug,Concrete,2. Good,1994,SB AIB,Gemeente Almere,Existing,8.5,15.6,132.6,Simon Vestdijkbrug,52.3665343,4.8742534,4.5,,13,1.7,2100,318630A66B593498E0535B320A0A7C56,Simon Vestdijkstraat,Groengebieden/Parken,Literatuurwijk,Almere Stad,141507.656,485555.123
2066,Prozabrug,Verkeersbrug,Concrete,2. Good,1994,SB AIB,Gemeente Almere,Existing,8.5,15.5,131.8,Prozabrug,,,4.8,,13,1.7,2100,318630A66B5A3498E0535B320A0A7C56,Prozastraat,Groengebieden/Parken,Literatuurwijk,Almere Stad,141255.285,485334.55
2067,Annie M.G.Schmidtbrug,Verkeersbrug,Concrete,2. Good,1994,SB AIB,Gemeente Almere,Existing,9.3,15.6,145.1,Annie MG Schmidtbrug,52.3752564,4.9087933,9,,13,2,2100,318630A66AE23498E0535B320A0A7C56,Annie M.G. Schmidtweg,Groengebieden/Parken,Literatuurwijk,Almere Stad,140869.679,484937.275
2068,Boudewijn Buchbrug,Verkeersbrug,Concrete,2. Good,1994,SB AIB,Gemeente Almere,Existing,4.6,14.7,67.6,Boudewijn Buchbrug,5.8057943,-55.1622912,4.3,0,13,1.7,2100,318630A66BB93498E0535B320A0A7C56,Godfried Bomanspad,Groengebieden/Parken,Literatuurwijk,Almere Stad,141078.01,485238.529
2069,Jaap ter Haarbrug,Verkeersbrug,Concrete,2. Good,1994,SB AIB,Gemeente Almere,Existing,4.6,14.6,67.2,Jaap ter Haarbrug,53.2192634,6.5629872,4.3,0,13,1.7,2100,318630A66AE13498E0535B320A0A7C56,Vasalisstraat,Groengebieden/Parken,Literatuurwijk,Almere Stad,140844.036,485112.042
2070,Cissy van Marxveldbrug,Verkeersbrug,Concrete,2. Good,1994,SB AIB,Gemeente Almere,Existing,4.7,14.5,68.2,Televisiebrug,52.3511317,5.1817128,4.4,0,13,2,2100,318630A66AE33498E0535B320A0A7C56,A.M. de Jongpad,Groengebieden/Parken,Literatuurwijk,Almere Stad,140938.965,484812.355
2071,Johan Fabriciusbrug,Verkeersbrug,Concrete,2. Good,1994,SB AIB,Gemeente Almere,Existing,5.1,29.7,151.5,Johan Fabriciusbrug,52.3524114,5.1850049,4.8,0,9,2,2300,318630A66B5B3498E0535B320A0A7C56,Cissy van Marxveldtstr,Groengebieden/Parken,Literatuurwijk,Almere Stad,141229.546,484961.014
2072,J.B.Schuilbrug,Verkeersbrug,Concrete,2. Good,1994,SB AIB,Gemeente Almere,Existing,4.2,29.7,124.7,JB Schuilbrug,52.3536729,5.1886162,3.9,0,9,1.7,2100,318630A66B5C3498E0535B320A0A7C56,Kabelstraat,Groengebieden/Parken,Literatuurwijk,Almere Stad,141479.646,485090.566
2073,Televisiebrug,Verkeersbrug,Concrete,2. Good,1994,SB AIB,Gemeente Almere,Existing,4.6,29.8,137.1,Televisiebrug,52.3511317,5.1817128,4.3,0,9,2,2100,318630A66AE43498E0535B320A0A7C56,A.M. de Jongpad,Groengebieden/Parken,Literatuurwijk,Almere Stad,140997.79,484829.86
2074,Felix Timmermansbrug,Verkeersbrug,Concrete,2. Good,1994,SB AIB,Gemeente Almere,Existing,4.5,43.1,193.95,Havendreef_Literatuurwijk 3,52.3541626,5.192585,4.1,4.6,,,2100,318630A66B3E3498E0535B320A0A7C56,Havendreef,Hoofdwegen,Literatuurwijk,Almere Stad,141787.808,485764.619
2251,,Verkeersbrug,Concrete,2. Good,1981,SB AIB,Gemeente Almere,Existing,5.9,265,1563.5,Landdrostdreef,52.3747441,5.2213805,4.9,4.2,,,,318630A66B863498E0535B320A0A7C56,Landdrostdreef,Hoofdwegen,Centrum Almere Stad,Almere Stad,143665.529,487505.61
2252,CS-brug,Verkeersbrug,Concrete,2. Good,1985,SB AIB,Gemeente Almere,Existing,5.6,24.5,137,CS Brug,52.0878834,5.1111478,5,,12,2.9,2100,318630A66B3B3498E0535B320A0A7C56,Spoorbaanpad,Groengebieden/Parken,Centrum Almere Stad,Almere Stad,143783.65,487530.588
2254,Odeonbrug,Verkeersbrug,Concrete,2. Good,1989,SB AIB,Gemeente Almere,Existing,6,26.7,151.1,Slapstickbrug,40.7610988,-73.9679999,0,0,22,2.5,2100,318630A66B2D3498E0535B320A0A7C56,Slapstickpad,Groengebieden/Parken,Centrum Almere Stad,Almere Stad,143825.716,487349.555
2255,Cinemabrug,Verkeersbrug,Concrete,2. Good,1991,SB AIB,Gemeente Almere,Existing,30.5,30,915,Slapstickbrug,40.7610988,-73.9679999,6.5,0,0,2.6,2100,318630A66B2E3498E0535B320A0A7C56,Stadswetering,Groengebieden/Parken,Centrum Almere Stad,Almere Stad,143974.4773,487210.0393
2257,Ziekenhuisbrug,Fiets-voetbrug,Concrete,2. Good,1985,SB AIB,Gemeente Almere,Existing,6.3,30.5,192.2,Judy Garlandbrug,52.3710598,5.2257219,0,0,5,2.6,2100,318630A66B143498E0535B320A0A7C56,Fongerspad,Groengebieden/Parken,Centrum Almere Stad,Almere Stad,144043.311,486785.507
2264,Mannus Frankenbrug,Verkeersbrug,Concrete,2. Good,1993,SB AIB,Gemeente Almere,Existing,6.5,28.7,186.5,Ingrid Bergmanbrug,52.3685721,5.2338889,0,0,10,2.5,2100,318630A66B113498E0535B320A0A7C56,Mannus Frankenpad,Groengebieden/Parken,Filmwijk,Almere Stad,144519.739,486444.074
2265,Heinz Ruhmannbrug,Verkeersbrug,Concrete,2. Good,1993,SB AIB,Gemeente Almere,Existing,6,19.6,117.6,Heinz Ruhmannbrug,40.5954842,-75.4879073,0,0,7,2.3,2100,318630A66B233498E0535B320A0A7C56,Heinz Ruhmannstraat,Groengebieden/Parken,Filmwijk,Almere Stad,144598.394,486691.702
2266,Ingrid Bergmanbrug,Verkeersbrug,Concrete,2. Good,1992,SB AIB,Gemeente Almere,Existing,9.5,30.5,289.9,Nathalie Woodbrug,52.3692744,5.236272,0,0,10.5,2.1,2100,318630A66B123498E0535B320A0A7C56,Ingrid Bergmanstraat,Groengebieden/Parken,Filmwijk,Almere Stad,144549.774,486776.352
2267,Nathalie Woodbrug,Verkeersbrug,Concrete,2. Good,1992,SB AIB,Gemeente Almere,Existing,13.8,33.2,458.2,Nathalie Woodbrug,52.3692744,5.236272,0,2.5,12.5,2.7,2100,318630A66B0F3498E0535B320A0A7C56,Natalie Woodpad,Groengebieden/Parken,Filmwijk,Almere Stad,144696.693,486866.505
2268,Jeanne Moreaubrug,Verkeersbrug,Concrete,2. Good,1993,SB AIB,Gemeente Almere,Existing,4.7,24.2,113.7,Nathalie Woodbrug,52.3692744,5.236272,0,0,8.5,2.1,2100,318630A66B103498E0535B320A0A7C56,Natalie Woodpad,Groengebieden/Parken,Filmwijk,Almere Stad,144831.923,486945.381
2282,Louis Chrispijnbrug,Verkeersbrug,Concrete,2. Good,1993,SB AIB,Gemeente Almere,Existing,4.8,29,139.2,Louis Chrispijnbrug,52.362568,5.2365933,0,0,10,2.5,2100,318630A66B183498E0535B320A0A7C56,Fongerspad,Groengebieden/Parken,Filmwijk,Almere Stad,144709.895,486084.16
2284,Lumierestrandbrug,Verkeersbrug,Concrete,2. Good,1993,SB AIB,Gemeente Almere,Existing,6,28.7,172.2,Joris Ivensbrug,51.8439641,5.8658635,0,0,10,2.5,2100,318630A66B193498E0535B320A0A7C56,Fongerspad,Groengebieden/Parken,Filmwijk,Almere Stad,144724.324,486035.016
2285,Parkwijkbrug,Verkeersbrug,Concrete,2. Good,1992,SB AIB,Gemeente Almere,Existing,11,11.2,123.2,Watercypresstraat 2~192,52.3739024,5.2447048,0,0,10,2,2100,318630A66B133498E0535B320A0A7C56,Parkwijklaan,Woongebied,Parkwijk,Almere Stad,145314.13,487467.83
2286,Boomgaardbrug,Verkeersbrug,Concrete,2. Good,1992,SB AIB,Gemeente Almere,Existing,17,11,187,Magnoliahof,51.377002,6.1324871,0,0,7,2.5,2100,318630A66AD93498E0535B320A0A7C56,Hoefbladpad,Woongebied,Parkwijk,Almere Stad,145339.429,487291.005
2287,Schietwilgbrug,Verkeersbrug,Concrete,2. Good,1994,SB AIB,Gemeente Almere,Existing,9.4,15.5,145.7,Boomgaardbrug,51.186386,3.211724,0,0,13,2,2100,318630A66ADA3498E0535B320A0A7C56,Vleugelnootsingel,Groengebieden/Parken,Parkwijk,Almere Stad,145398.407,487243.18
2288,Pereboombrug,Verkeersbrug,Concrete,2. Good,1994,SB AIB,Gemeente Almere,Existing,9.5,15.6,148,Pereboombrug,52.3712636,5.2480536,5.5,,13.2,2,2100,318630A66BBA3498E0535B320A0A7C56,Pereboomweg,Groengebieden/Parken,Parkwijk,Almere Stad,145525.064,487044.254
2289,Haagbeukbrug,Verkeersbrug,Concrete,2. Good,1994,SB AIB,Gemeente Almere,Existing,10.5,15.5,162.8,Boomgaardbrug,51.186386,3.211724,0,0,12,2,2100,318630A66AD83498E0535B320A0A7C56,Haagbeukweg,Groengebieden/Parken,Parkwijk,Almere Stad,145270.676,487181.039
2290,Appelboombrug,Verkeersbrug,Concrete,2. Good,1993,SB AIB,Gemeente Almere,Existing,6,24.4,146.4,Appelboombrug,52.3718149,5.2427145,0,0,9,2.1,2100,318630A66AD73498E0535B320A0A7C56,Hoefbladpad,Groengebieden/Parken,Parkwijk,Almere Stad,145160.766,487117.72
2292,Watercypresbrug,Verkeersbrug,Concrete,2. Good,1994,SB AIB,Gemeente Almere,Existing,7.7,10.5,80.9,Verzetsbrug,53.0547268,5.4049582,0,0,9,2,2100,318630A66AB63498E0535B320A0A7C56,Spoorbaanpad,Groengebieden/Parken,Verzetswijk,Almere Stad,145296.693,487644.158
2293,Joris Ivensbrug,Verkeersbrug,Concrete,2. Good,1995,SB AIB,Gemeente Almere,Existing,10.5,8.7,91.3,Joris Ivensbrug,51.8439641,5.8658635,0,0,7,2,2100,318630A66B1A3498E0535B320A0A7C56,Joris Ivenslaan,Groengebieden/Parken,Filmwijk,Almere Stad,144912.679,486135.425
2295,Simon van Collembrug,Verkeersbrug,Concrete,2. Good,1995,SB AIB,Gemeente Almere,Existing,9,8.8,79.2,Simon van Collembrug,,,0,0,8,2,2100,318630A66B6D3498E0535B320A0A7C56,Simon van Collemstraat,Groengebieden/Parken,Filmwijk,Almere Stad,145238.083,486313.027
2297,Carpapoort,Verkeersbrug,Concrete,2. Good,1990,SB AIB,Gemeente Almere,Existing,8.8,46,405,Volksdansbrug_Veluwsekant,52.3579157,5.2543634,4.7,2.7,13.7,3.1,2100,318630A66A9C3498E0535B320A0A7C56,Veluwedreef,Groengebieden/Parken,Veluwsekant,Almere Stad,145896.7962,485797.7773
2298,Lubitschbrug,Verkeersbrug,Concrete,2. Good,1995,SB AIB,Gemeente Almere,Existing,5.2,24.2,126,Hal Roachpoort_Filmwijkoever,,,4.6,,9,2,2100,318630A66B4C3498E0535B320A0A7C56,Caprastraat,Groengebieden/Parken,Filmwijk,Almere Stad,145608.232,485641.996
2299,Volksdansbrug,Fiets-voetbrug,Concrete,2. Good,1995,SB AIB,Gemeente Almere,Existing,4.6,24.2,112,Volksdansbrug_Veluwsekant,52.3579157,5.2543634,4,,9,2,2100,318630A66A9B3498E0535B320A0A7C56,Volksdanspad,Groengebieden/Parken,Veluwsekant,Almere Stad,145933.7168,485816.2376
2300,Isadora Duncanbrug,Verkeersbrug,Concrete,2. Good,1995,SB AIB,Gemeente Almere,Existing,9.2,15.4,142,Volksdansbrug_Danswijk,26.5423046,-81.8744663,5.5,,13.4,2,2100,318630A66B223498E0535B320A0A7C56,Isadora Duncanweg,Groengebieden/Parken,Danswijk,Almere Stad,146146.79,486080.828
2301,Karoenbruggen,Verkeersbrug,Concrete,2. Good,1995,SB AIB,Gemeente Almere,Existing,9.5,24.5,158,Karoenbruggen,52.3636799,5.2561215,7.2,,8.1,2.1,2100,318630A66B213498E0535B320A0A7C56,Polkastraat,Groengebieden/Parken,Danswijk,Almere Stad,146076.243,486188.724
2302,Salsabrug,Verkeersbrug,Concrete,2. Good,1995,SB AIB,Gemeente Almere,Existing,9.6,15.5,149,Karoenbruggen,52.3636799,5.2561215,5.5,,13,2,2100,318630A66B1E3498E0535B320A0A7C56,Salsastraat,Groengebieden/Parken,Danswijk,Almere Stad,145932.458,486397.608
2303,Ballarinapoort,Verkeersbrug,Concrete,2. Good,1996,SB AIB,Gemeente Almere,Existing,9,69.7,697,Salsabrug,47.80949,13.05501,6.5,,10,6,2100,318630A66B1D3498E0535B320A0A7C56,Hagevoortdreef,Groengebieden/Parken,Danswijk,Almere Stad,145841.018,486650.875
2304,Danslaanpoort,Verkeersbrug,Concrete,2. Good,1996,SB AIB,Gemeente Almere,Existing,13.3,20,266,Hagevoortdreef_Parkwijk 1,52.3678542,5.2531359,5.2,2.8,,,2100,318630A66B1F3498E0535B320A0A7C56,Hagevoortdreef,Hoofdwegen,Parkwijk,Almere Stad,146005.855,486738.975
2305,Hagevoortbrug,Verkeersbrug,Concrete,2. Good,2001,SB AIB,Gemeente Almere,Existing,13,126.7,1647.1,Hoge Vaart Danswijk,52.3658645,5.2558597,7,,15,7,2100,318630A66B203498E0535B320A0A7C56,Hoge Vaart,Groengebieden/Parken,Danswijk,Almere Stad,146284.032,486858.425
2306,Mangobrug,Verkeersbrug,Concrete,2. Good,1996,SB AIB,Gemeente Almere,Existing,5.2,24.1,126,Mangobrug,68.3280943,15.6198243,4.6,,9,2,2100,318630A66B1C3498E0535B320A0A7C56,Ballerinapad,Groengebieden/Parken,Parkwijk,Almere Stad,145805.772,486721.697
2307,Perzikbrug,Verkeersbrug,Concrete,2. Good,1996,SB AIB,Gemeente Almere,Existing,9,15.6,140.4,Mangobrug,68.3280943,15.6198243,5.6,,13.6,2,2100,318630A66B1B3498E0535B320A0A7C56,Perzikstraat,Groengebieden/Parken,Parkwijk,Almere Stad,145650.048,486877.759
2308,Malevitsjpoort,Verkeersbrug,Concrete,2. Good,2001,SB AIB,Gemeente Almere,Existing,7.5,12,90,Hagevoortdreef_Tussen de Vaarten 4,52.3707308,5.2629943,7,,,,2100,318630A66B243498E0535B320A0A7C56,Hagevoortdreef,Hoofdwegen,Tussen de Vaarten,Almere Stad,146627.669,487027.096
2309,Michelangelobrug,Verkeersbrug,Concrete,2. Good,2001,SB AIB,Gemeente Almere,Existing,7.3,96.9,707.4,BH Chagallbrug,,,7,,15,7,2100,318630A66B283498E0535B320A0A7C56,Hagevoortdreef,Hoofdwegen,Tussen de Vaarten,Almere Stad,146808.631,487142.958
2310,Renaissancepoort,Verkeersbrug,Concrete,2. Good,2001,SB AIB,Gemeente Almere,Existing,6.8,12,81.6,Hagevoortdreef_Tussen de Vaarten 2,52.3707308,5.2629943,6.5,,0,0,2100,318630A66B873498E0535B320A0A7C56,Hagevoortdreef,Hoofdwegen,Tussen de Vaarten,Almere Stad,147102.483,487322.065
2311,Appelbrug,Verkeersbrug,Concrete,2. Good,2001,Provincie Flevoland,Gemeente Almere,Existing,5,154,770,Hoge Vaart Danswijk 2,52.3572454,5.2662485,4.5,,20,6,2100,318630A66B883498E0535B320A0A7C56,Hoge Vaart,Groengebieden/Parken,Parkwijk,Almere Stad,146021.108,487328.249
2312,ALM2312,Verkeersbrug,Concrete,2. Good,2001,SB AIB,Gemeente Almere,Existing,5.2,31.3,162.8,Charlotte van Pallandtlaan_Gracht,52.0896407,4.375517,5,,8,0.7,2100,318630A66B893498E0535B320A0A7C56,Escherpad,Groengebieden/Parken,Tussen de Vaarten,Almere Stad,146106.569,487313.655
2314,ALM2314,Verkeersbrug,Concrete,2. Good,2001,SB AIB,Gemeente Almere,Existing,5,73.6,368,Appelpad,52.1887991,5.540215,5,,9,0.8,2100,318630A66B8A3498E0535B320A0A7C56,Appelpad,Groengebieden/Parken,Tussen de Vaarten,Almere Stad,146344.004,487449.745
2318,ALM2318,Verkeersbrug,Concrete,2. Good,2002,SB AIB,Gemeente Almere,Existing,5.2,30.2,157,Chagallbrug,,,4.8,,8,1.7,2100,318630A66B8B3498E0535B320A0A7C56,Appelpad,Groengebieden/Parken,Tussen de Vaarten,Almere Stad,146498.0316,487498.161
2319,ALM2319,Verkeersbrug,Concrete,2. Good,2002,SB AIB,Gemeente Almere,Existing,3,30,90,Chagallbrug,,,2.9,,8,1.2,2100,318630A66B8C3498E0535B320A0A7C56,Giacomettipad,Groengebieden/Parken,Tussen de Vaarten,Almere Stad,146636.163,487371.292
2320,Chagallbrug,Verkeersbrug,Concrete,2. Good,2002,SB AIB,Gemeente Almere,Existing,9,30.2,271.8,Michelangelobrug,51.2046484,3.2244695,5.5,,8,1.1,2100,318630A66B273498E0535B320A0A7C56,Chagallweg,Groengebieden/Parken,Tussen de Vaarten,Almere Stad,146797.472,487190.301
2501,Landdrostpoort,Verkeersbrug,Concrete,2. Good,1984,SB AIB,Gemeente Almere,Existing,16,39,624,CS Brug,52.0878834,5.1111478,2.3,2.7,12.5,3.3,2100,318630A66ACC3498E0535B320A0A7C56,Landdrostdreef,Groengebieden/Parken,Centrum Almere Stad,Almere Stad,143753.665,487657.025
2506,Mokerpoort,Verkeersbrug,Concrete,2. Good,1979,SB AIB,Gemeente Almere,Existing,19,22.5,427.5,Dinkelbrug,52.250073,7.0196955,14,,,,2200,318630A66ACD3498E0535B320A0A7C56,Stadswetering,Groengebieden/Parken,Waterwijk,Almere Stad,143879.132,487993.87
2509,Maaspoort,Verkeersbrug,Concrete,2. Good,1983,SB AIB,Gemeente Almere,Existing,18,18,324,Randstaddreef_Waterwijk 3,52.3774555,5.225969,14.8,,,,2100,318630A66AC23498E0535B320A0A7C56,Randstaddreef,Hoofdwegen,Waterwijk,Almere Stad,143647.188,488183.693
2510,Waterwijkpoort,Verkeersbrug,Concrete,2. Good,1983,SB AIB,Gemeente Almere,Existing,8.8,42,369.6,Randstaddreef_Waterwijk 1,52.3774555,5.225969,7,,,,2100,318630A66AC13498E0535B320A0A7C56,Randstaddreef,Hoofdwegen,Waterwijk,Almere Stad,143529.41,488223.4
2511,Zaagbrug,Verkeersbrug,Concrete,2. Good,1979,SB AIB,Gemeente Almere,Existing,22,37,814,Waterpasbrug,52.3837849,5.2184991,14,,,,2300,318630A66ABE3498E0535B320A0A7C56,Markerdreef,Groengebieden/Parken,Markerkant,Almere Stad,143406.851,488422.147
2512,Waterpaspoort,Verkeersbrug,Concrete,2. Good,1982,SB AIB,Gemeente Almere,Existing,8,22,176,Waterpasbrug,52.3837849,5.2184991,5,,,,2100,318630A66ABF3498E0535B320A0A7C56,Markerkant 11,Groengebieden/Parken,Markerkant,Almere Stad,143518.067,488452.358
2515,IJsselmeerbrug,Verkeersbrug,Concrete,2. Good,1981,SB AIB,Gemeente Almere,Existing,9.4,22.3,209.6,IJsselmeerbrug,52.7978321,5.3235903,5.6,,14.8,2,2100,318630A66AB83498E0535B320A0A7C56,IJsselmeerweg,Groengebieden/Parken,Waterwijk,Almere Stad,143737.152,488944.702
2518,Karperpoort,Verkeersbrug,Concrete,2. Good,1981,SB AIB,Gemeente Almere,Existing,9.6,20,192,Madisonpoort,52.3930231,5.2279502,5,2.7,13,2.2,2100,318630A66B393498E0535B320A0A7C56,Karperweg,Groengebieden/Parken,Waterwijk,Almere Stad,144208.624,489360.987
2520,Zalmbrug,Verkeersbrug,Concrete,2. Good,1981,SB AIB,Gemeente Almere,Existing,9.4,22.3,209.6,Baarsweg,51.8582624,4.3521581,5.6,,14.8,2,2100,318630A66AA93498E0535B320A0A7C56,Tjeukemeerstraat,Woongebied,Waterwijk,Almere Stad,144323.858,489060.814
2521,Eerste Pirellibrug,Verkeersbrug,Concrete,2. Good,1983,SB AIB,Gemeente Almere,Existing,14,88,1232,Hoge Vaart_Eerste Pirellibrug,52.4147026,5.5878963,7.4,,30.5,5.4,2100,318630A66AC03498E0535B320A0A7C56,Hoge Vaart,Groengebieden/Parken,Waterwijk,Almere Stad,144894.098,489208.449
2523,Bruinvisbrug,Verkeersbrug,Concrete,2. Good,1981,SB AIB,Gemeente Almere,Existing,8.4,22.3,187.3,Bruinvisbrug,52.3873341,5.23222,5.6,,15,2,2100,318630A66AA83498E0535B320A0A7C56,Bruinvispad,Groengebieden/Parken,Waterwijk,Almere Stad,144447.257,488834.936
2535,Verzetspoort,Verkeersbrug,Concrete,2. Good,1990,SB AIB,Gemeente Almere,Existing,8,40.5,324,Jan Postmabrug,-28.3221387,23.0719589,7.4,,,2.6,2100,318630A66B6A3498E0535B320A0A7C56,Vrijheidsdreef,Groengebieden/Parken,Verzetswijk,Almere Stad,144975.98,488220.529
2536,Vrijheidsbrug,Verkeersbrug,Concrete,2. Good,1991,SB AIB,Gemeente Almere,Existing,12.5,88.5,106.3,Artsenverzet,52.2431151,6.1678985,7.4,4,30,5.5,2100,318630A66B693498E0535B320A0A7C56,Von Draispad,Groengebieden/Parken,Verzetswijk,Almere Stad,145265.92,488500.038
2547,Tweede Geuzenbrug,Verkeersbrug,Concrete,2. Good,1991,SB AIB,Gemeente Almere,Existing,15,88.5,1327.5,Von Draispad,52.3782096,5.2501839,7.4,,30,5.5,2100,318630A66AB53498E0535B320A0A7C56,Geuzenpad,Woongebied,Verzetswijk,Almere Stad,145438.106,488182.365
2548,Humberbrug,Verkeersbrug,Concrete,2. Good,1992,SB AIB,Gemeente Almere,Existing,4,24,96,Jan Postmabrug,-28.3221387,23.0719589,3.5,,9,2,2100,318630A66B6B3498E0535B320A0A7C56,Humberpad,Groengebieden/Parken,Verzetswijk,Almere Stad,144953.966,488261.235
2549,Eerste Geuzenbrug,Verkeersbrug,Concrete,2. Good,1994,SB AIB,Gemeente Almere,Existing,5.8,14.5,84.1,Verzetsbrug,53.0547268,5.4049582,5.4,,5,2,2100,318630A66AB33498E0535B320A0A7C56,Geuzenpad,Groengebieden/Parken,Verzetswijk,Almere Stad,145114.455,487989.253
2550,Verzetsbrug,Verkeersbrug,Concrete,2. Good,1994,SB AIB,Gemeente Almere,Existing,9.3,15.5,144.2,Verzetsbrug,53.0547268,5.4049582,5.2,,12,2,2100,318630A66AB43498E0535B320A0A7C56,Verzetslaan,Groengebieden/Parken,Verzetswijk,Almere Stad,145221.939,487806.785
2551,15 Augustusbrug,Verkeersbrug,Concrete,2. Good,1994,SB AIB,Gemeente Almere,Existing,3.8,10.6,40.3,Verzetsbrug,53.0547268,5.4049582,0,0,9.5,2,2100,318630A66AB73498E0535B320A0A7C56,Spoorbaanpad,Groengebieden/Parken,Verzetswijk,Almere Stad,145289.071,487681.627
2753,Sikkelklaverpoort,Verkeersbrug,Concrete,2. Good,1984,SB AIB,Gemeente Almere,Existing,11.4,21,239.4,Laurierstraat,52.3718967,4.8797719,5,2.7,15,2.5,2100,318630A66AF83498E0535B320A0A7C56,Mierikswortelpad,Woongebied,Kruidenwijk,Almere Stad,142854.279,488088.453
2754,Kruidenwijkpoort,Verkeersbrug,Concrete,2. Good,1983,SB AIB,Gemeente Almere,Existing,8.8,36.3,319.44,Spoordreef_Kruidenwijk 1,52.3734865,5.2149066,7,,,,2100,318630A66ABC3498E0535B320A0A7C56,Spoordreef,Hoofdwegen,Kruidenwijk,Almere Stad,143068.622,488015.959
2755,Melissepoort,Verkeersbrug,Concrete,2. Good,1983,SB AIB,Gemeente Almere,Existing,18,18,324,Melissepad,52.5187249,6.0451833,14.8,,,,2100,318630A66ABD3498E0535B320A0A7C56,Spoordreef,Woongebied,Kruidenwijk,Almere Stad,143033.887,487916.944
2761,Landvoogdpoort,Verkeersbrug,Concrete,2. Good,1980,SB AIB,Gemeente Almere,Existing,22,22.8,524.4,Algerabrug,51.9169283,4.5792456,17.5,2.5,12.5,2,2200,318630A66AC83498E0535B320A0A7C56,Waddendreef,Groengebieden/Parken,Staatsliedenwijk,Almere Stad,143186.463,487452.709
2762,Wisselbrug,Verkeersbrug,Concrete,2. Good,1982,SB AIB,Gemeente Almere,Existing,3.2,12.4,39.7,Algerabrug,51.9169283,4.5792456,2.8,,12.5,1.5,2100,318630A66BD03498E0535B320A0A7C56,Landvoogdpad,Groengebieden/Parken,Staatsliedenwijk,Almere Stad,143181.6076,487487.7957
2767,Tuinkruidenpoort,Verkeersbrug,Concrete,2. Good,1986,SB AIB,Gemeente Almere,Existing,18.8,64.6,607.2,Tuinkruidenpoort,52.3734637,5.1996039,5.2,2.1,13,2.7,2100,318630A66B063498E0535B320A0A7C56,Muziekdreef,Groengebieden/Parken,Muziekwijk,Almere Stad,142228.6554,487316.6747
2774,Parkweteringbrug,Verkeersbrug,Concrete,2. Good,1980,SB AIB,Gemeente Almere,Existing,9.6,61.2,578.5,Hoepelbrug,52.3751879,5.2059253,0,0,21,4.1,2100,318630A66B083498E0535B320A0A7C56,Waddendreef,Groengebieden/Parken,Kruidenwijk,Almere Stad,142715.4845,487309.6247
2780,Wipbrug,Verkeersbrug,Concrete,2. Good,1984,SB AIB,Gemeente Almere,Existing,11.5,31.5,362.3,Krijgertjebrug,52.3827042,5.1902592,7,,22,2.5,2100,318630A66B263498E0535B320A0A7C56,Clauspad,Groengebieden/Parken,Kruidenwijk,Almere Stad,141707.458,488123.349
2788,Beemsterbrug,Verkeersbrug,Concrete,2. Good,1990,SB AIB,Gemeente Almere,Existing,8.4,25.2,211.7,Hollandsekant,52.363445,5.1744229,8,,8,2,2100,318630A66B463498E0535B320A0A7C56,Beemsterweg,Groengebieden/Parken,Hollandsekant,Almere Stad,140800.253,486304.286
2789,Chet Bakerpoort,Verkeersbrug,Concrete,2. Good,1986,SB AIB,Gemeente Almere,Existing,10.5,40.5,409.5,Hollandsekant,52.363445,5.1744229,7.5,,1512,3.2,2100,318630A66B453498E0535B320A0A7C56,Hollandsedreef,Groengebieden/Parken,Hollandsekant,Almere Stad,140845.343,486431.148
2790,Ella Fitzgeraldbrug,Verkeersbrug,Concrete,2. Good,1990,SB AIB,Gemeente Almere,Existing,3.6,25.8,92.9,Charlie Parkerbrug,39.2664566,-81.5456576,,,8.5,2,2100,318630A66BD23498E0535B320A0A7C56,Ella Fitzgeraldpad,Groengebieden/Parken,Muziekwijk,Almere Stad,140909.2809,486626.0202
2791,Ella Fitzgeraldbrug,Verkeersbrug,Concrete,2. Good,1990,SB AIB,Gemeente Almere,Existing,16.6,31.4,521.2,Charlie Parkerbrug,39.2664566,-81.5456576,0,0,11,3,2100,318630A66B383498E0535B320A0A7C56,Ella Fitzgeraldpad,Groengebieden/Parken,Muziekwijk,Almere Stad,140899.832,486643.985
2792,Glenn Millerbrug,Verkeersbrug,Concrete,2. Good,1990,SB AIB,Gemeente Almere,Existing,10.2,24,245,Mineurbrug,52.3697485,5.1812806,5.4,,7.4,2.05,2100,318630A66A9D3498E0535B320A0A7C56,Glenn Millerweg,Groengebieden/Parken,Muziekwijk,Almere Stad,140931.969,486770.64
2793,Mineurbrug,Verkeersbrug,Concrete,2. Good,1991,SB AIB,Gemeente Almere,Existing,6.6,27.1,182,Mineurbrug,52.3697485,5.1812806,5,,8.8,2.1,2100,318630A66A9E3498E0535B320A0A7C56,Nat King Colestraat,Groengebieden/Parken,Muziekwijk,Almere Stad,140975.239,486899.099
2794,Majeurbrug,Verkeersbrug,Concrete,2. Good,1991,SB AIB,Gemeente Almere,Existing,6.6,27.1,182,Mineurbrug,52.3697485,5.1812806,5,,8.8,2.1,2100,318630A66A9F3498E0535B320A0A7C56,Piccolostraat,Groengebieden/Parken,Muziekwijk,Almere Stad,141011.184,487004.224
2795,Contrabasbrug,Verkeersbrug,Concrete,2. Good,1990,SB AIB,Gemeente Almere,Existing,10.2,24,245,Slagwerkbrug,40.749011,-73.994485,5.4,,7.4,2.05,2100,318630A66AA43498E0535B320A0A7C56,Contrabasweg,Groengebieden/Parken,Muziekwijk,Almere Stad,141059.472,487136.571
2796,Slagwerkbrug,Verkeersbrug,Concrete,2. Good,1991,SB AIB,Gemeente Almere,Existing,3.5,24.1,84,Slagwerkbrug,40.749011,-73.994485,3,,7.8,2.25,2100,318630A66AA53498E0535B320A0A7C56,Slagwerkpad,Groengebieden/Parken,Muziekwijk,Almere Stad,141118.475,487269.646
2797,Saxofoonbrug,Verkeersbrug,Concrete,2. Good,1990,SB AIB,Gemeente Almere,Existing,9,24.3,218.7,Slagwerkbrug,40.749011,-73.994485,5.6,,7.8,2.05,2100,318630A66AA63498E0535B320A0A7C56,Saxofoonweg,Groengebieden/Parken,Muziekwijk,Almere Stad,141170.971,487398.623
2798,Suitebrug,Verkeersbrug,Concrete,2. Good,1991,SB AIB,Gemeente Almere,Existing,5.5,24,132,Divertimentobrug,40.7773906,-73.9580934,5.1,,7.8,2.05,2100,318630A66AA33498E0535B320A0A7C56,Fugaplantsoen,Groengebieden/Parken,Muziekwijk,Almere Stad,141310.074,487591.563
2799,Partitabrug,Verkeersbrug,Concrete,2. Good,1990,SB AIB,Gemeente Almere,Existing,5.5,24,132,Rapsodiebrug,52.3756972,5.1897292,5.1,,7.8,2.04,2100,318630A66AA03498E0535B320A0A7C56,Partitastraat,Groengebieden/Parken,Muziekwijk,Almere Stad,141492.213,487659.395
2800,Divertimentobrug,Verkeersbrug,Concrete,2. Good,1991,SB AIB,Gemeente Almere,Existing,3.5,24,144,Divertimentobrug,40.7773906,-73.9580934,3,,7.8,2.07,2100,318630A66AA23498E0535B320A0A7C56,Divertimentostraat,Groengebieden/Parken,Muziekwijk,Almere Stad,141522.136,487708.534
2802,Nootmuskaatbrug,Verkeersbrug,Concrete,2. Good,1984,SB AIB,Gemeente Almere,Existing,8.3,18,149.4,Nootmuskaatbrug,52.3802101,5.1990669,4.5,,15,2,2100,318630A66ACA3498E0535B320A0A7C56,De Specerij,Groengebieden/Parken,Kruidenwijk,Almere Stad,142192.48,488057.386
2804,Rozemarijnbrug,Verkeersbrug,Concrete,2. Good,1984,SB AIB,Gemeente Almere,Existing,9.2,16.2,149,Rozemarijnbrug,51.0499173,3.709594,5.5,,15,2,2100,318630A66B053498E0535B320A0A7C56,Rozemarijnstraat,Groengebieden/Parken,Kruidenwijk,Almere Stad,142631.517,487954.222
2807,Basilicumbrug,Verkeersbrug,Concrete,2. Good,1984,SB AIB,Gemeente Almere,Existing,9.2,12.3,113.2,Basilicumbrug,52.3797935,5.2086013,5.5,,12,2,2100,318630A66B043498E0535B320A0A7C56,Basilicumweg,Groengebieden/Parken,Kruidenwijk,Almere Stad,142832.478,488018.831
2808,Distelbrug,Verkeersbrug,Concrete,2. Good,1984,SB AIB,Gemeente Almere,Existing,9.2,12.3,113.1,Bergklaverbrug,52.3824193,5.2100489,5.5,,9.2,2,2100,318630A66B0E3498E0535B320A0A7C56,Distelweg,Groengebieden/Parken,Kruidenwijk,Almere Stad,142900.421,488207.557
2821,Kruidenbrug,Verkeersbrug,Concrete,2. Good,1984,SB AIB,Gemeente Almere,Existing,9,31.5,283.5,Krijgertjebrug,52.3827042,5.1902592,6.5,,22,2.5,2100,318630A66B253498E0535B320A0A7C56,Kruidenweg,Groengebieden/Parken,Kruidenwijk,Almere Stad,141693.901,488136.236
2822,Saxofoonbrug,Verkeersbrug,Concrete,2. Good,1989,SB AIB,Gemeente Almere,Existing,5.5,23.7,233,Suitebrug,,,5.1,,9,2,2100,318630A66B983498E0535B320A0A7C56,Saxofoonweg,Groengebieden/Parken,Muziekwijk,Almere Stad,141192.653,487427.485
2823,2e Beatrixpoort,Verkeersbrug,Concrete,2. Good,2000,SB AIB,Gemeente Almere,Existing,9.7,20.3,196.91,Waddendreef_Beatrixpark 2,52.3823094,5.1984358,6.9,2.7,,,2100,318630A66B093498E0535B320A0A7C56,Waddendreef,Hoofdwegen,Kruidenwijk,Almere Stad,142556.265,487279.247
2824,2e Parkweteringbrug,Verkeersbrug,Concrete,2. Good,2000,SB AIB,Gemeente Almere,Existing,9.6,61.2,587.5,Hoepelbrug,52.3751879,5.2059253,6.6,,21,4.2,2100,318630A66B073498E0535B320A0A7C56,Den Uylpad,Groengebieden/Parken,Kruidenwijk,Almere Stad,142712.8733,487320.6839
2825,2e Prinsenpoort,Verkeersbrug,Concrete,2. Good,2000,SB AIB,Gemeente Almere,Existing,10,12,120,Waddendreef_Staatsliedenwijk 2,52.3731386,5.2045779,6.5,2.5,10,,2080,318630A66AC93498E0535B320A0A7C56,Waddendreef,Hoofdwegen,Staatsliedenwijk,Almere Stad,142998.82,487400.074
2903,KW OE-B,Verkeersbrug,Concrete,2. Good,1988,SB AIB,Gemeente Almere,Existing,6,23.8,142.8,Noorderplassen 5,52.3901132,5.2034767,4,,10.5,2,2100,318630A66B993498E0535B320A0A7C56,Von Draisweg,Groengebieden/Parken,Noorderplassen,Almere Stad,144096.996,489623.664
2904,Lepelaarbrug,Verkeersbrug,Concrete,2. Good,1973,SB AIB,Gemeente Almere,Existing,7.7,28.2,217.1,Noorderplassen 5,52.3901132,5.2034767,0,0,20,1.5,2100,318630A66ADE3498E0535B320A0A7C56,Lepelaarpad,Groengebieden/Parken,Noorderplassen,Almere Stad,142997.073,490287.902
2907,Noorderleedebrug,Verkeersbrug,Concrete,2. Good,1991,SB AIB,Gemeente Almere,Existing,6.5,53.8,349.7,Noorderleedebrug,,,4.4,0,0,2.9,2100,318630A66ADF3498E0535B320A0A7C56,Noorderleedepad,Groengebieden/Parken,Noorderplassen,Almere Stad,141383.37,488670.185
2921,1e en 2e Boegdreefbrug,Verkeersbrug,Concrete,2. Good,2004,SB AIB,Gemeente Almere,Existing,7.8,11.2,87,Boegdreef 2,51.615308,4.7218507,3.3,2.6,,,,318630A66B9A3498E0535B320A0A7C56,Boegdreef,Hoofdwegen,Noorderplassen,Almere Stad,140943.2044,488473.5101
2923,Fokkeboombrug,Verkeersbrug,Concrete,2. Good,2004,SB AIB,Gemeente Almere,Existing,6,16.9,101.4,Giek_Fokkeboom_Plecht,52.3868149,5.1834064,4.4,,10.1,6.8,,318630A66B9C3498E0535B320A0A7C56,Fokkeboom,Groengebieden/Parken,Noorderplassen,Almere Stad,141091.136,488682.276
2932,2e Roerbrug,Verkeersbrug,Concrete,2. Good,2006,SB AIB,Gemeente Almere,Existing,4,28.9,115.6,Hoge Wetering 2,,,3.4,,15.3,3.3,,318630A66B9D3498E0535B320A0A7C56,Boelijn,Groengebieden/Parken,Noorderplassen,Almere Stad,140823.869,489095.653
2933,2e Kombuisbrug,Verkeersbrug,Concrete,2. Good,2006,SB AIB,Gemeente Almere,Existing,6.8,28,190.4,Hoge Wetering 2,,,3.5,,15.3,3.3,,318630A66BA13498E0535B320A0A7C56,Grootzeil,Groengebieden/Parken,Noorderplassen,Almere Stad,140734.76,489047.276
2937,,Verkeersbrug,Concrete,2. Good,2012,SB AIB,Gemeente Almere,Existing,7.5,10.9,81.75,Boeilijn 144~182,52.3951864,5.175477,5.5,,7,1,2092,318630A66BF23498E0535B320A0A7C56,Ankerbol,Woongebied,Noorderplassen,Almere Stad,140631.5225,489650.051
2938,Kompasbrug,Verkeersbrug,Concrete,2. Good,2008,SB AIB,Gemeente Almere,Existing,7,16,112,Noorderplassen 4,52.388092,5.1822002,4.5,,7,1.6,2200,318630A66BA23498E0535B320A0A7C56,Kompas,Groengebieden/Parken,Noorderplassen,Almere Stad,140765.693,489819.141
2939,Radarbrug,Verkeersbrug,Concrete,2. Good,2008,SB AIB,Gemeente Almere,Existing,6.5,48.5,315,Noorderplassen 4,52.388092,5.1822002,4.3,,5,1.7,2200,318630A66BA33498E0535B320A0A7C56,Jakobsstaf,Groengebieden/Parken,Noorderplassen,Almere Stad,140665.519,489976.891
2941,Eindsplitsbrug,Verkeersbrug,Concrete,2. Good,2009,SB AIB,Gemeente Almere,Existing,7,16.2,113.4,Noorderplassen 4,52.388092,5.1822002,6,,8,1,2089,318630A66BA53498E0535B320A0A7C56,Eindsplits,Groengebieden/Parken,Noorderplassen,Almere Stad,140469.155,490363.709
2943,Galjootbrug,Verkeersbrug,Concrete,2. Good,1989,SB AIB,Gemeente Almere,Existing,9.5,6.5,61.75,Galjootweg 2,52.3860833,5.1678191,7.5,,,,2090,71D71104-D142-4638-A579-79504F8533D3,Roer,Buitengebied,Noorderplassen,Almere Stad,140945.5663,489187.6553
2958,1e Roerbrug,Verkeersbrug,Concrete,2. Good,2007,SB AIB,Gemeente Almere,Existing,8.2,27.65,192.7,Hoge Wetering 2,,,7,,15.3,3.3,,318630A66B9E3498E0535B320A0A7C56,Boelijn,Groengebieden/Parken,Noorderplassen,Almere Stad,140814.512,489090.638
2959,3e Roerbrug,Verkeersbrug,Concrete,2. Good,2007,SB AIB,Gemeente Almere,Existing,7,29.3,205.1,Hoge Wetering 2,,,5.5,,15.3,3.3,,318630A66B9F3498E0535B320A0A7C56,Boelijn,Groengebieden/Parken,Noorderplassen,Almere Stad,140831.951,489098.97
2960,1e Kombuisbrug,Verkeersbrug,Concrete,2. Good,2007,SB AIB,Gemeente Almere,Existing,10.1,28.7,289.87,Hoge Wetering 3,,,9,,15.3,3.3,,318630A66BA03498E0535B320A0A7C56,Grootzeil,Groengebieden/Parken,Noorderplassen,Almere Stad,140714.149,489035.105
3002,Richterenbrug,Verkeersbrug,Concrete,2. Good,1985,SB AIB,Gemeente Almere,Existing,9.4,14.6,137.2,Jaap Nippadbrug 1,52.3917227,5.2632656,4.8,,11,1,2100,318630A66AEF3498E0535B320A0A7C56,Daniel Stalpaertstraat,Groengebieden/Parken,Bouwmeesterbuurt,Almere Buiten,146452.257,489252.652
3004,Sportlaanbrug,Verkeersbrug,Concrete,2. Good,1985,SB AIB,Gemeente Almere,Existing,9.8,5.7,55.9,Rechterenstraat,52.0527155,4.3065754,5.5,,5,1.5,2100,318630A66AF03498E0535B320A0A7C56,Sportlaan,Woongebied,Landgoederenbuurt,Almere Buiten,146488.682,489226.227
3008,Bostonpoort,Verkeersbrug,Concrete,2. Good,1982,SB AIB,Gemeente Almere,Existing,10.5,5.7,59.9,Breedenborgstraat,52.3927267,5.2691413,8.8,2.6,,,2100,318630A66AF53498E0535B320A0A7C56,Polderdreef,Woongebied,Landgoederenbuurt,Almere Buiten,147009.118,489474.626
3009,Torontobrug,Verkeersbrug,Concrete,2. Good,1982,SB AIB,Gemeente Almere,Existing,14.5,28.4,411.8,San Franciscostraat 1,52.3500996,4.759817,6.5,,,,2100,318630A66AF43498E0535B320A0A7C56,Piet Moeskopspad,Groengebieden/Parken,Molenbuurt,Almere Buiten,146925.477,489585.122
3011,Molenwiekbrug,Duikerbrug,Concrete,2. Good,1983,SB AIB,Gemeente Almere,Existing,3,28,258.16,Parijsbrug 2,,,0,0,3,0.9,2100,29D8A296D226C5C5E0500A0A57326FCA,Piet Moeskopspad,Groengebieden/Parken,Molenbuurt,Almere Buiten,,
3013,Parijsbrug,Verkeersbrug,Concrete,2. Good,2012,SB AIB,Gemeente Almere,Existing,5.2,21.2,110.24,Parijsbrug 2,,,3.4,,8.5,2,2092,318630A66AF93498E0535B320A0A7C56,Piet Moeskopspad,Groengebieden/Parken,Molenbuurt,Almere Buiten,147481.173,489976.316
3015,Tijdpadbrug,Fiets-voetbrug,Concrete,2. Good,1987,SB AIB,Gemeente Almere,Existing,3.7,32,118.4,Gracht Meridiaanpark 2,52.3930851,5.2886677,3.3,,12,2,2027,318630A66BA73498E0535B320A0A7C56,Tijdpad,Groengebieden/Parken,Seizoenenbuurt,Almere Buiten,147718.829,490137.338
3016,Moutmolenbrug,Duikerbrug,Concrete,2. Good,1984,SB AIB,Gemeente Almere,Existing,9.4,17,45.35,Bosrandpoort 1,52.052452,5.6807289,5,,5,1.5,2100,318630A66BA83498E0535B320A0A7C56,Moutmolenpad,Groengebieden/Parken,Seizoenenbuurt,Almere Buiten,,
3021,J.B.Bakemabrug,Verkeersbrug,Concrete,2. Good,1982,SB AIB,Gemeente Almere,Existing,16,51.3,820.9,Walmolenbrug 1,52.3999886,5.2646039,9.9,,15,7,2100,318630A66AFE3498E0535B320A0A7C56,Polderdreef,Groengebieden/Parken,Molenbuurt,Almere Buiten,146543.095,490173.241
3024,D.Nuddigbrug,Verkeersbrug,Concrete,2. Good,1984,SB AIB,Gemeente Almere,Existing,9.5,5.6,53.2,D Hudigbrug,52.3968653,5.2574087,5.5,,5,1.3,2100,318630A66AFC3498E0535B320A0A7C56,C. van Eesterenplein,Groengebieden/Parken,Bouwmeesterbuurt,Almere Buiten,146168.508,489903.792
3025,C. van Eesterenbrug,Verkeersbrug,Concrete,2. Good,1983,SB AIB,Gemeente Almere,Existing,13.5,5.5,74.3,D Hudigbrug,52.3968653,5.2574087,3.6,,5,1,2100,318630A66AFD3498E0535B320A0A7C56,Pirellipad,Groengebieden/Parken,Bouwmeesterbuurt,Almere Buiten,146066.632,489826.248
3026,C.Outshoornbrug,Verkeersbrug,Concrete,2. Good,1985,SB AIB,Gemeente Almere,Existing,9.4,5.5,51.7,L Wijersbrug,52.3943641,5.2578026,5.5,,5,1.5,2100,318630A66B293498E0535B320A0A7C56,C. van Eesterenplein,Groengebieden/Parken,Bouwmeesterbuurt,Almere Buiten,146144.875,489736.253
3027,Pieter de Swartbrug,Verkeersbrug,Concrete,2. Good,1985,SB AIB,Gemeente Almere,Existing,10,5.5,55,Daniel Stalpaertbrug,41.404335,-75.4048587,5.5,,55,1.5,2100,318630A66AFF3498E0535B320A0A7C56,M.J. Granpre Molierestr.,Groengebieden/Parken,Bouwmeesterbuurt,Almere Buiten,146305.588,489497.521
3038,Middachtenbrug,Verkeersbrug,Concrete,2. Good,1991,SB AIB,Gemeente Almere,Existing,10.2,19.2,195.8,Middachtenbrug,52.3871434,5.2665937,5.5,,15,2,2100,318630A66AF23498E0535B320A0A7C56,Gerrit Schultepad,Groengebieden/Parken,Landgoederenbuurt,Almere Buiten,146770.648,488827.157
3039,Leuvenhorstbrug,Verkeersbrug,Concrete,2. Good,1991,SB AIB,Gemeente Almere,Existing,11.1,17.3,192,Middachtenbrug,52.3871434,5.2665937,8.3,,15,2,2100,318630A66AF13498E0535B320A0A7C56,Gerrit Schultepad,Groengebieden/Parken,Landgoederenbuurt,Almere Buiten,146670.067,488965.114
3040,Vierde Geuzenbrug,Verkeersbrug,Concrete,2. Good,1991,SB AIB,Gemeente Almere,Existing,5.7,16.2,92.3,Amelisweerdbrug,52.389324,5.2640794,5.3,,15,2,2100,318630A66B703498E0535B320A0A7C56,Gerrit Schultepad,Groengebieden/Parken,Landgoederenbuurt,Almere Buiten,146647.257,488994.721
3042,Hofstedebrug,Verkeersbrug,Concrete,2. Good,1991,SB AIB,Gemeente Almere,Existing,3.5,16.3,57.1,Amelisweerdbrug,52.389324,5.2640794,3.1,,15,2,2100,318630A66B6E3498E0535B320A0A7C56,Gerrit Schultepad,Groengebieden/Parken,Landgoederenbuurt,Almere Buiten,146540.076,489153.196
3044,Amelisweerdbrug,Verkeersbrug,Concrete,2. Good,1990,SB AIB,Gemeente Almere,Existing,3.5,16.3,57.1,Rechterenstraat,52.0527155,4.3065754,3.1,,15,2,2100,318630A66B6F3498E0535B320A0A7C56,Gerrit Schultepad,Woongebied,Landgoederenbuurt,Almere Buiten,146601.38,489064.233
3047,GRACHT BEGRAAFPLAATS,Verkeersbrug,Concrete,2. Good,1987,SB AIB,Gemeente Almere,Existing,3.7,28.5,105.5,Gracht Meridiaanpark 1,52.3930851,5.2886677,3.3,,12,2,2100,318630A66BA93498E0535B320A0A7C56,Moutmolenpad,Groengebieden/Parken,Seizoenenbuurt,Almere Buiten,147560.948,490364.743
3049,Kalenderbrug,Verkeersbrug,Concrete,2. Good,1994,SB AIB,Gemeente Almere,Existing,15.8,15.8,211.7,Kalenderbrug 1,,,5.5,,15,2,2100,318630A66AFA3498E0535B320A0A7C56,Kalenderweg,Groengebieden/Parken,Indischebuurt,Almere Buiten,147860.473,489880.36
3050,Septemberbrug,Verkeersbrug,Concrete,2. Good,1996,SB AIB,Gemeente Almere,Existing,8.8,15.5,136.4,Septemberbrug,52.4033697,5.2820237,4.5,,12,1.5,2100,318630A66B013498E0535B320A0A7C56,Septemberstraat,Groengebieden/Parken,Seizoenenbuurt,Almere Buiten,147842.655,490626.952
3052,Februaribrug,Verkeersbrug,Concrete,2. Good,1996,SB AIB,Gemeente Almere,Existing,8.5,15.6,132.6,Februaribrug,52.4057576,5.2875859,4.5,,15,2.5,2100,318630A66B023498E0535B320A0A7C56,Februaristraat,Groengebieden/Parken,Seizoenenbuurt,Almere Buiten,148221.435,490893.36
3053,Bosrandbrug,Verkeersbrug,Concrete,2. Good,1996,SB AIB,Gemeente Almere,Existing,9,86.8,781.2,Willem Bontekoebrug,52.4068673,5.29014,6.5,,15,6,2100,318630A66B2A3498E0535B320A0A7C56,Bosranddreef,Groengebieden/Parken,Oostvaardersbuurt,Almere Buiten,148334.285,490971.472
3055,Bosrandpoort,Verkeersbrug,Concrete,2. Good,1996,SB AIB,Gemeente Almere,Existing,9,13,117,Oostrandpark_Fluitweg,52.4098172,5.2876858,6.5,,,,2100,318630A66BC33498E0535B320A0A7C56,Bosranddreef,Buitengebied,Oostvaardersbuurt,Almere Buiten,148138.4159,491169.4433
3058,Willem Bontekoebrug,Verkeersbrug,Concrete,2. Good,1999,SB AIB,Gemeente Almere,Existing,5.8,14.7,85.3,Willem Bontekoebrug,52.4068673,5.29014,5.4,,13,1.7,2100,318630A66B2B3498E0535B320A0A7C56,Ommelandvaart,Groengebieden/Parken,Oostvaardersbuurt,Almere Buiten,148394.663,491014.527
3063,Busbaan,Duikerbrug,Concrete,2. Good,2000,SB AIB,Gemeente Almere,Existing,3,9.8,33.95,BB Laan der V.O.C.,52.4053164,5.3040894,,,2.7,0.6,2090,29D8A296DD67C5C5E0500A0A57326FCA,Vergulde Draakstraat,Hoofdwegen,Oostvaardersbuurt,Almere Buiten,,
3063,,Duikerbrug,Concrete,2. Good,2000,SB AIB,Gemeente Almere,Existing,3,8.1,30.52,Vergulde Draakstraat 5~17,52.4060136,5.3045948,,,2.7,0.6,2090,29D8A296F5BAC5C5E0500A0A57326FCA,Vergulde Draakstraat,Woongebied,Oostvaardersbuurt,Almere Buiten,,
3300,Buitenhoutsebrug,Verkeersbrug,Concrete,2. Good,1985,SB AIB,Gemeente Almere,Existing,15.5,91.6,1419.8,Lage Vaart 11,52.4797081,5.4902569,7.4,,,,2100,318630A66B153498E0535B320A0A7C56,Lage Vaart,Groengebieden/Parken,overig Almere Buiten,Almere Buiten,147793.028,488407.282
3302,Tuibrug Lage Vaart,Verkeersbrug,Concrete,2. Good,1989,SB AIB,Gemeente Almere,Existing,4.5,185,832.5,Lage Vaart 11,52.4797081,5.4902569,0,0,32,6.5,2100,318630A66B163498E0535B320A0A7C56,Lage Vaart,Groengebieden/Parken,overig Almere Buiten,Almere Buiten,148555.1659,488826.7156
3303,Jasmijnbrug,Verkeersbrug,Concrete,2. Good,1989,SB AIB,Gemeente Almere,Existing,7.5,60.5,453.8,Gerrit Schultebrug,52.3899598,5.296024,0,0,8,5,2100,318630A66ADD3498E0535B320A0A7C56,Gerard Monninkpad,Groengebieden/Parken,Regenboogbuurt,Almere Buiten,148508.316,488981.214
3304,Korenbloembrug,Verkeersbrug,Concrete,2. Good,1991,SB AIB,Gemeente Almere,Existing,10,21.5,215,Geraniumbrug,52.3900141,5.2858083,0,0,10,1.8,2100,318630A66ACF3498E0535B320A0A7C56,Korenbloemweg,Groengebieden/Parken,Bloemenbuurt,Almere Buiten,148208.121,489205.623
3305,Geraniumbrug,Verkeersbrug,Concrete,2. Good,1991,SB AIB,Gemeente Almere,Existing,6,29.6,177.6,Geraniumbrug,52.3900141,5.2858083,0,0,10,2,2100,318630A66AD03498E0535B320A0A7C56,Gerrit Schultepad,Groengebieden/Parken,Bloemenbuurt,Almere Buiten,148102.564,489130.758
3306,Bougainvillebrug,Verkeersbrug,Concrete,2. Good,1991,SB AIB,Gemeente Almere,Existing,6,29.6,177.6,Geraniumbrug,52.3900141,5.2858083,0,0,10,2,2100,318630A66AD13498E0535B320A0A7C56,Bougainvillepad,Groengebieden/Parken,Bloemenbuurt,Almere Buiten,147969.012,489036.593
3307,Lupinebrug,Verkeersbrug,Concrete,2. Good,1991,SB AIB,Gemeente Almere,Existing,3.5,29,101.5,Lupinebrug,52.3880257,5.281458,0,0,10,2,2100,318630A66AD23498E0535B320A0A7C56,Soniapad,Groengebieden/Parken,Bloemenbuurt,Almere Buiten,147801.39,488917.21
3308,Zonnebloembrug,Verkeersbrug,Concrete,2. Good,1991,SB AIB,Gemeente Almere,Existing,9.7,21,203.7,Lupinebrug,52.3880257,5.281458,0,0,10,2,2100,318630A66AD33498E0535B320A0A7C56,Zonnebloemweg,Groengebieden/Parken,Bloemenbuurt,Almere Buiten,147699.696,488847.359
3309,Cyclaambrug,Verkeersbrug,Concrete,2. Good,1991,SB AIB,Gemeente Almere,Existing,5,18.3,91.5,Lupinebrug,52.3880257,5.281458,4.6,,6,1,2100,318630A66AD43498E0535B320A0A7C56,Gerrit Schultepad,Groengebieden/Parken,Bloemenbuurt,Almere Buiten,147593.446,488770.002
3310,Edelhertbrug,Verkeersbrug,Concrete,2. Good,1985,SB AIB,Gemeente Almere,Existing,10,58.5,585,Lupinebrug,52.3880257,5.281458,6.5,,14.4,5,2100,318630A66AD53498E0535B320A0A7C56,Buitenhoutsedreef,Groengebieden/Parken,Bloemenbuurt,Almere Buiten,147569.384,488754.114
3311,Antilopebrug,Verkeersbrug,Concrete,2. Good,1993,SB AIB,Gemeente Almere,Existing,4.8,16.4,78.7,Antilopebrug,36.0978118,-95.9152459,4.4,,15,2,2100,318630A66B0A3498E0535B320A0A7C56,Pandabeerstraat,Groengebieden/Parken,Faunabuurt,Almere Buiten,147466.999,488683.552
3312,Leeuwbrug,Verkeersbrug,Concrete,2. Good,1993,SB AIB,Gemeente Almere,Existing,9,16.1,144.9,Antilopebrug,36.0978118,-95.9152459,4.5,,15,2,2100,318630A66B0B3498E0535B320A0A7C56,Leeuwstraat,Groengebieden/Parken,Faunabuurt,Almere Buiten,147201.369,488605.477
3313,Wezelbrug,Verkeersbrug,Concrete,2. Good,1993,SB AIB,Gemeente Almere,Existing,9,16,144,Leeuwbrug,52.255638,6.1622963,4.7,,14.5,2,2100,318630A66B0C3498E0535B320A0A7C56,Wezelstraat,Groengebieden/Parken,Faunabuurt,Almere Buiten,147006.898,488644.721
3315,Alpacabrug,Verkeersbrug,Concrete,2. Good,1989,SB AIB,Gemeente Almere,Existing,6.8,15.4,104.7,Leeuwbrug,52.255638,6.1622963,6.4,,5,1.5,2100,318630A66B0D3498E0535B320A0A7C56,Spoorbaanpad,Groengebieden/Parken,Faunabuurt,Almere Buiten,146933.796,488682.325
3317,Noordelijke Evenaarbrug,Verkeersbrug,Concrete,2. Good,1994,SB AIB,Gemeente Almere,Existing,11,36.6,402.6,Kalenderbrug 1,,,0,0,8,4,2100,318630A66ADB3498E0535B320A0A7C56,Evenaar,Groengebieden/Parken,Indischebuurt,Almere Buiten,148011.098,489674.032
3318,Zuidelijke Evenaarbrug,Verkeersbrug,Concrete,2. Good,1994,SB AIB,Gemeente Almere,Existing,11,36.6,402.6,Zuidelijke Evenaarbrug 1,52.3943058,5.2854008,0,0,8,4,2100,318630A66ADC3498E0535B320A0A7C56,Evenaar,Groengebieden/Parken,Regenboogbuurt,Almere Buiten,148046.301,489621.053
3320,Tenerifebrug,Verkeersbrug,Concrete,2. Good,1991,SB AIB,Gemeente Almere,Existing,8,39,312,Tenerifebrug 1,52.3963539,5.3009157,6.5,0,13,3.5,2100,318630A66B003498E0535B320A0A7C56,Gerrit Schultepad,Groengebieden/Parken,Regenboogbuurt,Almere Buiten,149121.8469,489843.9875
3322,Spectrumbrug,Verkeersbrug,Concrete,2. Good,1991,SB AIB,Gemeente Almere,Existing,12.5,97.6,1220,Lage Vaart 20,52.4797081,5.4902569,6.5,0,31.5,6.5,2100,318630A66B173498E0535B320A0A7C56,Lage Vaart,Groengebieden/Parken,overig Almere Buiten,Almere Buiten,149608.4,489399.545
3326,Victoria Regiabrug,Verkeersbrug,Concrete,2. Good,1989,SB AIB,Gemeente Almere,Existing,6,33.8,202.8,Geraniumbrug,52.3900141,5.2858083,0,0,10,2,2100,318630A66AD63498E0535B320A0A7C56,Waterleliestraat,Groengebieden/Parken,Bloemenbuurt,Almere Buiten,148248.392,489237.328
3327,Gerrit Schultebrug,Verkeersbrug,Concrete,2. Good,1994,SB AIB,Gemeente Almere,Existing,4.5,83.4,388.8,Gerrit Schultebrug,52.3899598,5.296024,0,0,15,0,2100,318630A66BF33498E0535B320A0A7C56,Gerrit Schultepad,Groengebieden/Parken,Regenboogbuurt,Almere Buiten,148333.5169,489243.8663
3328,Trekbrug,Verkeersbrug,Concrete,2. Good,1982,SB AIB,Gemeente Almere,Existing,7.5,41.4,310.5,Kolibribrug,40.7773906,-73.9580934,6,,20,2.5,2100,318630A66BDC3498E0535B320A0A7C56,Trekweg,Groengebieden/Parken,overig Almere Buiten,Almere Buiten,149543.1969,489312.1373
3329,Paarlemoerbrug,Verkeersbrug,Concrete,2. Good,1995,SB AIB,Gemeente Almere,Existing,3.5,8.2,28.7,Paarlemoervijver,52.3951515,5.2984238,0,0,0,0,2100,318630A66BFB3498E0535B320A0A7C56,Paarlemoervijver,Groengebieden/Parken,Regenboogbuurt,Almere Buiten,149012.3175,489762.7904
3330,Meridiaanbrug,Verkeersbrug,Concrete,2. Good,1994,SB AIB,Gemeente Almere,Existing,3.6,,80.3,Meridiaanbrug,39.9685184,-86.1534753,0,0,0,0,2100,318630A66BC53498E0535B320A0A7C56,Meridiaanpad,Groengebieden/Parken,Regenboogbuurt,Almere Buiten,148359.3569,489283.1043
3336,Antillenbrug,Verkeersbrug,Concrete,2. Good,2000,SB AIB,Gemeente Almere,Existing,8.8,25.7,226.2,Arubabrug,52.3962158,5.3083704,0,,11,1.4,2100,318630A66AE73498E0535B320A0A7C56,Antillenweg,Groengebieden/Parken,Eilandenbuurt,Almere Buiten,149475.473,489619.294
3339,Curacaubrug,Verkeersbrug,Concrete,2. Good,2001,SB AIB,Gemeente Almere,Existing,8.7,39.8,346.3,Arubabrug,52.3962158,5.3083704,5,,12,1.5,2100,318630A66AEA3498E0535B320A0A7C56,Antillenweg,Groengebieden/Parken,Eilandenbuurt,Almere Buiten,149659.379,489715.868
3342,Maldivenbrug,Verkeersbrug,Concrete,2. Good,2001,SB AIB,Gemeente Almere,Existing,8.8,37.8,332.6,Maldivenbrug,52.3978668,5.3085498,5,,,1.5,2100,318630A66AE63498E0535B320A0A7C56,Maldivenweg,Groengebieden/Parken,Eilandenbuurt,Almere Buiten,149644.274,490013.601
3352,Lofotenbrug,Verkeersbrug,Concrete,2. Good,2001,SB AIB,Gemeente Almere,Existing,9.5,31.5,299.3,Lofotenbrug,52.401241,5.30851,5.5,,12,2,2100,318630A66B5D3498E0535B320A0A7C56,Spitsbergen,Groengebieden/Parken,Eilandenbuurt,Almere Buiten,149620.203,490381.064
3362,Batikbrug,Verkeersbrug,Concrete,2. Good,2008,SB AIB,Gemeente Almere,Existing,5.5,,35.2,Tempo Doeloebrug,52.4029255,5.2999678,3.5,,8,2.3,2200,318630A66BBD3498E0535B320A0A7C56,Evenaar,Groengebieden/Parken,Indischebuurt,Almere Buiten,149483.5184,490699.1913
3363,Piet Pellebrug,Verkeersbrug,Concrete,2. Good,2008,SB AIB,Gemeente Almere,Existing,5.5,35.2,193.6,Piet Pellebrug,,,3.5,,8,2.3,2200,318630A66BC83498E0535B320A0A7C56,Evenaar,Groengebieden/Parken,Eilandenbuurt,Almere Buiten,149542.8631,490615.9434
3372,Maarten Toonderbrug,Verkeersbrug,Concrete,2. Good,2004,SB AIB,Gemeente Almere,Existing,13.2,21.1,278.52,Marten Toonderbrug,52.4015334,5.3129098,5.6,,7,1.9,2100,318630A66BAB3498E0535B320A0A7C56,Marten Toonderlaan,Groengebieden/Parken,Stripheldenbuurt,Almere Buiten,149919.988,490409.264
3373,Fiep Westendorpbrug,Verkeersbrug,Concrete,2. Good,2004,SB AIB,Gemeente Almere,Existing,16.2,51.4,832.68,Douwe Dabbertstraat 27~65,52.402514,5.314171,7,,6,1.8,2100,318630A66BB53498E0535B320A0A7C56,Ten Harmsen v.d. Beekpad,Woongebied,Stripheldenbuurt,Almere Buiten,150209.019,490625.019
3374,Phiny Dickbrug,Verkeersbrug,Concrete,2. Good,2004,SB AIB,Gemeente Almere,Existing,6,22.1,132.6,Hans G Kressebrug,52.4005473,5.3152837,4.8,,7,1.9,2100,318630A66BAC3498E0535B320A0A7C56,Gerrit Schultepad,Groengebieden/Parken,Stripheldenbuurt,Almere Buiten,149992.716,490390.561
3375,Carol Vogesbrug,Verkeersbrug,Concrete,2. Good,2004,SB AIB,Gemeente Almere,Existing,6,22.1,132.6,Carol Vogesbrug,52.4051619,5.322382,4.8,,7,1.9,2100,318630A66BB03498E0535B320A0A7C56,Carol Vogespad,Groengebieden/Parken,Stripheldenbuurt,Almere Buiten,150574.993,490801.384
3376,Hans G. Kressebrug,Verkeersbrug,Concrete,2. Good,2004,SB AIB,Gemeente Almere,Existing,9.6,21.1,202.56,Hans G Kressebrug,52.4005473,5.3152837,4.5,,7,1.9,2100,318630A66BAD3498E0535B320A0A7C56,Marten Toonderpad,Groengebieden/Parken,Stripheldenbuurt,Almere Buiten,150063.782,490282.64
3377,Jean Dulieubrug,Verkeersbrug,Concrete,2. Good,2004,SB AIB,Gemeente Almere,Existing,9.6,21.1,202.56,Jean Dulieubrug,52.3630534,4.8637694,4.5,,7,1.9,2100,318630A66BB13498E0535B320A0A7C56,Jean Dulieuweg,Groengebieden/Parken,Stripheldenbuurt,Almere Buiten,150662.726,490676.446
3378,Henk Sprengerbrug,Verkeersbrug,Concrete,2. Good,2004,SB AIB,Gemeente Almere,Existing,9.6,21.1,202.56,Hans G Kressebrug,52.4005473,5.3152837,4.5,,7,1.9,2100,318630A66BAE3498E0535B320A0A7C56,Marten Toonderpad,Groengebieden/Parken,Stripheldenbuurt,Almere Buiten,150216.292,490063.46
3379,Jaap Vegterbrug,Verkeersbrug,Concrete,2. Good,2004,SB AIB,Gemeente Almere,Existing,9.6,21.1,202.56,Hendrik IJzerbrootlaan,52.4022617,5.3246428,4.5,,7,1.9,2100,318630A66BB63498E0535B320A0A7C56,Jaap Vegterweg,Woongebied,Stripheldenbuurt,Almere Buiten,150820.321,490451.428
3380,Jaap Vegterbrug,Verkeersbrug,Concrete,2. Good,2004,SB AIB,Gemeente Almere,Existing,10,21.1,211,Popeyebrug,52.4012255,5.3266552,7.1,,7,1.9,2100,318630A66BCD3498E0535B320A0A7C56,Popeyepad,Groengebieden/Parken,Stripheldenbuurt,Almere Buiten,150871.4773,490396.6562
3381,Rommeldambrug,Verkeersbrug,Concrete,2. Good,2005,SB AIB,Gemeente Almere,Existing,13.2,21.1,278.52,Rommeldambrug,52.3978367,5.3171719,5.6,,7,1.9,2100,318630A66BAF3498E0535B320A0A7C56,Kapitein Wal Ruslaan,Groengebieden/Parken,Stripheldenbuurt,Almere Buiten,150215.864,489996.35
3382,Bobbiebrug,Verkeersbrug,Concrete,2. Good,2008,SB AIB,Gemeente Almere,Existing,6.3,23.5,148,Bobbiebrug,52.3993439,5.3212371,3.5,,11,1.1,2100,318630A66BF63498E0535B320A0A7C56,Kuifjepad,Groengebieden/Parken,Stripheldenbuurt,Almere Buiten,150507.996,490174.226
3383,Guust Flaterbrug,Verkeersbrug,Concrete,2. Good,2005,SB AIB,Gemeente Almere,Existing,8,21.1,168.8,Schanullekesluis,51.3086558,3.3879195,4.5,,7,1.9,2100,318630A66BB43498E0535B320A0A7C56,Andre Franquinweg,Groengebieden/Parken,Stripheldenbuurt,Almere Buiten,150272.049,489992.563
3384,Popeybrug,Verkeersbrug,Concrete,2. Good,2008,SB AIB,Gemeente Almere,Existing,4.1,18.6,76,Popeyestraat,52.4007245,5.3281509,3.9,,7,2,2200,318630A66BEC3498E0535B320A0A7C56,Popeyepad,Woongebied,Stripheldenbuurt,Almere Buiten,150911.39,490392.5272
3386,Rataplanbrug,Verkeersbrug,Concrete,2. Good,2008,SB AIB,Gemeente Almere,Existing,5.5,17.6,96.8,Bobbiebrug,52.3993439,5.3212371,3.1,,15.8,1,2200,318630A66BEF3498E0535B320A0A7C56,Lucky Lukestraat,Groengebieden/Parken,Stripheldenbuurt,Almere Buiten,150633.3616,490137.1407
3387,Schannullekebrug,Verkeersbrug,Concrete,2. Good,2005,SB AIB,Gemeente Almere,Existing,6.1,13.8,82.8,Schanullekesluis,51.3086558,3.3879195,4.9,,12,2.1,2100,318630A66BB33498E0535B320A0A7C56,Gerard Monninkpad,Groengebieden/Parken,Stripheldenbuurt,Almere Buiten,150375.7349,489860.8314
3388,Kuifjebrug,Verkeersbrug,Concrete,2. Good,2009,SB AIB,Gemeente Almere,Existing,8.5,9.3,79,Lucky Lukebrug,52.3986907,5.3237287,8,,8,1.1,2200,318630A66C023498E0535B320A0A7C56,Kuifjestraat,Groengebieden/Parken,Stripheldenbuurt,Almere Buiten,150521.9955,490079.5696
3389,Lucky Lukebrug,Verkeersbrug,Concrete,2. Good,2009,SB AIB,Gemeente Almere,Existing,7,9.3,65.1,Suskeplantsoen,52.3979383,5.3215363,4.7,,8,1.1,2200,318630A66BE23498E0535B320A0A7C56,Lucky Lukestraat,Woongebied,Stripheldenbuurt,Almere Buiten,150684.0594,490096.3638
4010,,Verkeersbrug,Concrete,2. Good,2013,SB AIB,Gemeente Almere,Existing,16,31,496,De Voortuin 8,,,,,,,2103,56CA8CA5-383C-455C-BF73-95BD898819EB,Elementendreef,Groengebieden/Parken,overig Almere Poort,Almere Poort,140144.6081,484618.3886
4018,,Fiets-voetbrug,Concrete,2. Good,1996,Waterschap Zuiderzeeland,Gemeente Almere,Existing,5.5,21.5,118.3,Hogekant 2b,51.6172839,4.9536004,5,,5,1.5,2076,318630A66BE73498E0535B320A0A7C56,Spoorbaanpad,Groengebieden/Parken,Hogekant,Almere Poort,139802.4683,485238.977
4023,,Verkeersbrug,Concrete,2. Good,2011,SB AIB,Gemeente Almere,Existing,19.3,10.5,202.65,De Voortuin 2,,,18.5,,,,2101,83EA48DD-4226-409A-AB9B-9EFABE895D71,Elementendreef,Buitengebied,overig Almere Poort,Almere Poort,139330.5396,483462.8654
4103,,Verkeersbrug,Concrete,2. Good,2012,SB AIB,Gemeente Almere,Existing,6.8,24.6,167.28,Frankrijkkade,52.3447724,5.148841,4.1,,5,1.5,2092,318630A66C013498E0535B320A0A7C56,Pierre de Coubertinlaan,Groengebieden/Parken,Europakwartier west,Almere Poort,138639.95,484034.6206
4112,,Verkeersbrug,Concrete,2. Good,2010,SB AIB,Gemeente Almere,Existing,17,14.6,248.2,Kreekbos Zuid_2,,,10,2,,,2090,318630A66BE63498E0535B320A0A7C56,Poortdreef,Woongebied,Duin,Almere Poort,138635.6036,483739.7469
4119,,Fiets-voetbrug,Concrete,2. Good,2019,SB AIB,Gemeente Almere,Existing,4.5,22.25,100.12,Osirispad,52.3513273,5.1525745,3.5,,,,2109,8584112C-3C37-4561-A6A4-D93BD989FC3C,Achillesstraat,Groengebieden/Parken,Homeruskwartier,Almere Poort,139033.702,484826.801
4122,,Fiets-voetbrug,Concrete,2. Good,2014,SB AIB,Gemeente Almere,Existing,4.5,34.5,155.25,Francis Drakebrug,52.3515099,5.1468198,,,,,2104,B78793AA-E364-400E-BEF5-EF199E01527E,Bartolomeus Diazstraat,Groengebieden/Parken,Columbuskwartier,Almere Poort,138629.4597,484897.0655
4123,Francis Drakebrug,Verkeersbrug,Concrete,2. Good,2014,SB AIB,Gemeente Almere,Existing,8,29.5,236,Francis Drakebrug,52.3515099,5.1468198,5,,,,2104,29D8A296FC1EC5C5E0500A0A57326FCA,Vasco da Gamapad,Groengebieden/Parken,Columbuskwartier,Almere Poort,138579.826,484903.604
4124,Ferdinand Magelhaenbrug,Verkeersbrug,Concrete,2. Good,2014,SB AIB,Gemeente Almere,Existing,7.3,15,109.5,Ferdinand Magelhaenbrug,52.3518909,5.1440329,6,,,,2104,29D8A296FC20C5C5E0500A0A57326FCA,Vasco da Gamapad,Groengebieden/Parken,Columbuskwartier,Almere Poort,138431.2568,484929.9375
4126,,Verkeersbrug,Concrete,2. Good,2012,SB AIB,Gemeente Almere,Existing,9.6,23.4,224.64,Neptunussingel 2,52.353035,5.15365,6.4,,7,1,2092,318630A66C003498E0535B320A0A7C56,Hermesstraat,Groengebieden/Parken,Homeruskwartier,Almere Poort,138940.7126,485109.231
4127,,Verkeersbrug,Concrete,2. Good,2012,SB AIB,Gemeente Almere,Existing,8.8,22.7,199.76,Neptunussingel 1,52.3530432,5.1535871,6.3,,7,1,2092,318630A66BFE3498E0535B320A0A7C56,Achillesstraat,Groengebieden/Parken,Homeruskwartier,Almere Poort,139058.1457,485075.5033
4128,,Verkeersbrug,Concrete,2. Good,2012,SB AIB,Gemeente Almere,Existing,8.75,21.8,190.75,Neptunussingel 1,52.3530432,5.1535871,5.3,,7,1.5,2092,318630A66BE33498E0535B320A0A7C56,Neptunussingel,Groengebieden/Parken,Homeruskwartier,Almere Poort,139180.7625,485072.0862
4130,,Verkeersbrug,Concrete,2. Good,2012,SB AIB,Gemeente Almere,Existing,8.9,19.2,170.88,Agamemnonsingel,52.3555373,5.1520916,5.7,,6,1,2092,318630A66BDB3498E0535B320A0A7C56,Trojestraat,Groengebieden/Parken,Homeruskwartier,Almere Poort,139098.1371,485269.4283
4131,,Verkeersbrug,Concrete,2. Good,2012,SB AIB,Gemeente Almere,Existing,10.4,20.6,214.24,Agamemnonsingel,52.3555373,5.1520916,5.3,,6,1,2092,318630A66BE13498E0535B320A0A7C56,Hermesstraat,Groengebieden/Parken,Homeruskwartier,Almere Poort,138980.9466,485293.6855
4138,,Verkeersbrug,Concrete,2. Good,2016,Stadsruimte,Gemeente Almere,Existing,10.5,14.9,156.45,Medusastraat,52.3607728,5.1536267,5.3,,,,2096,47E9BDA6-6028-48E7-BE67-C4A49B8D3798,Damoclesstraat,Groengebieden/Parken,Homeruskwartier,Almere Poort,139209.2452,485853.7013
4141,,Verkeersbrug,Concrete,2. Good,2016,Stadsruimte,Gemeente Almere,Existing,9,23.7,213.3,Gracht Arinnastraat,52.0895354,5.120886,5.4,,,,2096,DDC59619-61ED-4CB5-8AC2-8F1BA8BFF8CD,Saturnussingel,Groengebieden/Parken,Homeruskwartier,Almere Poort,139454.2993,485235.921
4143,,Verkeersbrug,Concrete,2. Good,2016,Stadsruimte,Gemeente Almere,Existing,13.2,17.9,236.28,Medusastraat,52.3607728,5.1536267,4.9,,,,2096,A514BE55-2DFB-4DE8-A131-3712AB6712A0,Damoclesstraat,Groengebieden/Parken,Homeruskwartier,Almere Poort,139194.4375,485842.0667
4151,,Verkeersbrug,Concrete,2. Good,2012,SB AIB,Gemeente Almere,Existing,7.5,59,442.5,Gracht_Cascadepark West 3,45.611472,-122.537995,4,,10,1.5,2092,318630A66BC23498E0535B320A0A7C56,Aegirstraat,Groengebieden/Parken,Homeruskwartier,Almere Poort,138779.2914,484894.3598
4153,,Verkeersbrug,Concrete,2. Good,2012,SB AIB,Gemeente Almere,Existing,11.1,12.3,136.53,Gracht Polluxstraat,51.4590171,5.4870089,5.3,,9,0.5,2092,318630A66BF43498E0535B320A0A7C56,Polluxstraat,Groengebieden/Parken,Homeruskwartier,Almere Poort,139365.8865,485132.8627
4813,,Duikerbrug,Concrete,2. Good,2014,SB AIB,Gemeente Almere,Existing,5.6,34,186.31,Godendreef 1b,52.359222,5.1460677,,,5,0.3,2104,AED2502F-1524-4F7C-9E2B-AF9B8CFC0872,Robert Pearystraat,Woongebied,overig Almere Poort,Almere Poort,,
4816,,Duikerbrug,Concrete,2. Good,2014,SB AIB,Gemeente Almere,Existing,5.6,37.8,92.24,Cascadepark West 5,41.3770669,-82.111086,,,5,0.3,2104,4C17C224-D4A7-4D15-A2F1-3F107F85A435,Godendreef,Groengebieden/Parken,Columbuskwartier,Almere Poort,,
4817,,Duikerbrug,Concrete,2. Good,2012,SB AIB,Gemeente Almere,Existing,5.6,25.7,141.57,Homeruslaan,52.0859018,5.1348287,,,5,0.3,2102,EF4C5C4B-1EB0-4951-A614-CD47D809823F,Homeruslaan,Woongebied,Homeruskwartier,Almere Poort,,
4819,,Duikerbrug,Concrete,2. Good,2013,SB AIB,Gemeente Almere,Existing,2,9.7,19.67,Centaurenstraat 22~32,52.3587205,5.1490201,,,1.75,0.15,2103,431C8CB3-74E0-44C9-A953-4F4F9B4C7DEE,Centaurenstraat,Woongebied,Homeruskwartier,Almere Poort,,
4820,,Duikerbrug,Concrete,2. Good,2013,SB AIB,Gemeente Almere,Existing,2,9.4,15.3,Cyclopenstraat 22~32,52.3581668,5.1487532,,,1.75,0.15,2103,8E7F8B02-75DF-4F25-85AA-2000FB10B333,Cyclopenstraat,Woongebied,Homeruskwartier,Almere Poort,,
4821,,Duikerbrug,Concrete,2. Good,2013,SB AIB,Gemeente Almere,Existing,2,18.8,37.36,Homeruslaan,52.0859018,5.1348287,,,1.75,0.15,2103,E39CF47A-B234-4D97-B8E4-C8B9C0E9C7CE,Homeruslaan,Woongebied,Homeruskwartier,Almere Poort,,
4823,,Duikerbrug,Concrete,2. Good,2015,SB AIB,Gemeente Almere,Existing,1.9,17.8,32.45,Homeruslaan,52.0859018,5.1348287,,,1.5,0.25,2105,B6022542-A016-4EAF-B354-8CAD27474C0F,Homeruslaan,Woongebied,Homeruskwartier,Almere Poort,,
4824,,Duikerbrug,Concrete,2. Good,2015,SB AIB,Gemeente Almere,Existing,1,38,108.11,Dionysusstraat,52.3548547,5.1503931,,,1,0,2105,924C7CC9-51C1-42D3-8935-9598DA99871F,Odysseestraat,Woongebied,Homeruskwartier,Almere Poort,,
4830,,Duikerbrug,Concrete,2. Good,2012,SB AIB,Gemeente Almere,Existing,5.6,18.2,99.04,Wim van Estpad,52.3585908,5.1602725,,,5,0.4,2102,5AB8F951-D4D2-4117-9F2D-39BF55D7B5AA,Godendreef,Buitengebied,Homeruskwartier,Almere Poort,,
5010,Meentbrug,Verkeersbrug,Concrete,2. Good,2005,SB AIB,Gemeente Almere,Existing,8,18.3,146.4,Sloot Waterlandseweg 4,52.3284853,5.2953626,5.6,,7.5,2.6,2085,318630A66BB23498E0535B320A0A7C56,Meentweg,Groengebieden/Parken,Overgooi,Almere Haven,146767.896,483161.519
8009,Grote Vaartbrug,Verkeersbrug,Concrete,2. Good,1981,SB AIB,Gemeente Almere,Existing,24.8,23.4,580.3,Kottertocht 7,,,5,2.8,14,2.8,2100,318630A66AB93498E0535B320A0A7C56,Wout Wagtmanspad,Groengebieden/Parken,De Vaart,Almere Buiten,145847.741,491291.824
8012,Grote,Verkeersbrug,Concrete,2. Good,1997,SB AIB,Gemeente Almere,Existing,12.9,23.9,308.3,Wilgenbos,52.4173084,5.2288404,6,,4,4.8,2100,318630A66BED3498E0535B320A0A7C56,Grote Vaartweg,Buitengebied,overig Almere Buiten,Almere Buiten,144482.5589,492696.6673
1015,Sluisbrug,Verkeersbrug,Steel,2. Good,1985,SB AIB,Gemeente Almere,Existing,13,17.5,227.5,Sluisbrug,53.2132323,6.5579738,,,4.8,3,2075,BC064F3E7BFA45D5977E3876C2EC7FE2,Oosterdreef,Groengebieden/Parken,Centrum Almere Haven,Almere Haven,143737.5326,482853.5755
1018,Hangbrug,Fiets-voetbrug,Steel,2. Good,2016,SB AIB,Gemeente Almere,Existing,5.8,37,214.6,Meentenbrug,52.3377224,5.2296825,,,,,2066,FD8535D5-D49A-4055-859E-6F2D38C494A5,Lange Wetering,Groengebieden/Parken,De Werven,Almere Haven,144091.9549,483220.2981
1022,Sportbrug,Fiets-voetbrug,Steel,2. Good,2012,SB AIB,Gemeente Almere,Existing,5.5,37.2,204.6,Sportbrug,52.3398095,5.2351444,,,19.5,2.3,2072,B4C8C34A-BFDB-4226-A580-9D18F41D0D82,Lange Wetering,Groengebieden/Parken,De Grienden,Almere Haven,144636.3492,483553.5008
1024,Bosbrug,Fiets-voetbrug,Steel,2. Good,2012,SB AIB,Gemeente Almere,Existing,5.5,37.2,204.6,Bosbrug,-26.2325897,28.2409671,5,,19,2.3,2072,04170C26-7CCE-4863-9E74-1BF92DA7C2D0,Kesslerpad,Groengebieden/Parken,De Grienden,Almere Haven,144732.4443,483898.6717
1027,Rozenbrug,Fiets-voetbrug,Steel,2. Good,2012,SB AIB,Gemeente Almere,Existing,5.5,27,148.5,Rozenbrug,51.904422,4.2471328,,,10.1,2.3,2072,2A62D675-4F9C-431C-9B57-AD17F9C16EA7,Marktgracht,Groengebieden/Parken,De Werven,Almere Haven,143807.7656,483579.2344
1030,Polderbrug,Fiets-voetbrug,Steel,2. Good,2012,SB AIB,Gemeente Almere,Existing,5.5,37,203.5,Voorstraatbrug,52.4944223,5.4819285,,,19.5,2.3,2068,475C9E05-2727-4E64-82D1-73091F09DFA6,Marktgracht,Groengebieden/Parken,De Hoven,Almere Haven,143501.4694,483799.6535
1034,Canadabrug,Fiets-voetbrug,Steel,2. Good,2012,SB AIB,Gemeente Almere,Existing,5,27,135,Canadabrug,51.21234,3.20683,4.8,,9,2,2072,5018D682-AA1D-4752-8952-5EE3ADE0D154,Ambachtsmark,Groengebieden/Parken,De Marken,Almere Haven,143745.8749,484075.1354
1038,Tuinenbrug,Fiets-voetbrug,Steel,2. Good,2012,SB AIB,Gemeente Almere,Existing,5.5,28.3,155.65,Tuinenbrug,52.3487816,5.2321118,5,,6.7,2,2072,7B331538-2542-4478-806E-2997DD82043A,Kesslerpad,Groengebieden/Parken,De Marken,Almere Haven,144432.0191,484551.27
1046,Uitbrug,Fiets-voetbrug,Steel,2. Good,2013,SB AIB,Gemeente Almere,Existing,5,27,135,Uitbrug,52.3411916,5.2119978,4.8,,9,1.9,2073,FB11486A-0AEE-4F3E-8AAC-9D0F4F68B9A3,Arkpad,Groengebieden/Parken,De Hoven,Almere Haven,143058.7474,483713.3742
1050,Overhoogte,Fiets-voetbrug,Steel,2. Good,2013,SB AIB,Gemeente Almere,Existing,5.1,24.5,124.95,Lobbrug,52.3422016,5.2082628,4.8,,9.5,2,2073,29D8A296D244C5C5E0500A0A57326FCA,Marktgracht,Groengebieden/Parken,De Wierden,Almere Haven,142762.203,483864.111
1052,Leembrug,Fiets-voetbrug,Steel,2. Good,2013,SB AIB,Gemeente Almere,Existing,5,24.7,123.5,Leembrug,52.9269736,6.4206918,4.6,,9.4,2,2073,29D8A296D245C5C5E0500A0A57326FCA,Marktgracht,Groengebieden/Parken,De Wierden,Almere Haven,142480.079,483884.714
1054,Kornbrug,Fiets-voetbrug,Steel,2. Good,2013,SB AIB,Gemeente Almere,Existing,5.3,24.7,130.91,Hoekbrug,-25.8028425,29.4496852,5,,9.8,2,2073,29D8A296D246C5C5E0500A0A57326FCA,Marktgracht,Groengebieden/Parken,De Wierden,Almere Haven,142328.758,483449.942
1072,Schoolbrug,Fiets-voetbrug,Steel,2. Good,1998,SB AIB,Gemeente Almere,Existing,3.4,12.7,41.8,Schoolbrug,51.2191227,4.4270182,3,,9,0.5,2300,318630A66B763498E0535B320A0A7C56,Marktgracht,Groengebieden/Parken,Centrum Almere Haven,Almere Haven,143465.741,483230.7132
2037,Meppelbrug,Fiets-voetbrug,Steel,2. Good,2011,SB AIB,Gemeente Almere,Existing,5.75,38.5,221.38,Giethoornbrug,52.3697189,5.2127326,,,10,2.6,2071,66F04130-0D81-4323-B57A-EB6BCCE4F2A2,Tsjaikowskypad,Groengebieden/Parken,Stedenwijk,Almere Stad,142954.8489,486878.8428
2040,Olstbrug,Fiets-voetbrug,Steel,2. Good,1979,SB AIB,Gemeente Almere,Existing,2,15,30,Olstbrug,43.6227748,-87.7945323,1.8,,14.4,2.2,2300,318630A66AC63498E0535B320A0A7C56,Olstgracht,Groengebieden/Parken,Stedenwijk,Almere Stad,143231.833,486774.692
2041,Deventerbrug,Verkeersbrug,Steel,2. Good,1979,SB AIB,Gemeente Almere,Existing,6,9.7,58.2,Weerwater_Centrum,52.3593844,5.2212343,5.7,,4.4,2.15,2300,318630A66AC73498E0535B320A0A7C56,Deventerpad,Groengebieden/Parken,Centrum Almere Stad,Almere Stad,143257.316,486676.872
2076,ALM2076,Fiets-voetbrug,Steel,2. Good,2004,SB AIB,Gemeente Almere,Existing,1.7,30.3,51.5,Poeziestraat 366~396,52.3582859,5.1803121,1.7,,12,1,2100,318630A66B843498E0535B320A0A7C56,Poeziestraat,Groengebieden/Parken,Literatuurwijk,Almere Stad,140900.582,485724.716
2081,Silverlinebrug,Fiets-voetbrug,Steel,2. Good,2004,SB AIB,Gemeente Almere,Existing,7.1,42.25,299.98,Weerwater_Centrum,52.3593844,5.2212343,4.95,,,,2064,29D8A296DBBAC5C5E0500A0A57326FCA,De Pier,Groengebieden/Parken,Centrum Almere Stad,Almere Stad,143271.428,486576.853
2336,,Fiets-voetbrug,Steel,2. Good,2003,SB AIB,Gemeente Almere,Existing,1.4,7.1,9.9,Zwaluwpad,51.8269672,4.8174236,1.4,,1,1,,318630A66B903498E0535B320A0A7C56,Tussenring,Groengebieden/Parken,Tussen de Vaarten,Almere Stad,146810.261,487989.768
2338,,Fiets-voetbrug,Steel,2. Good,2003,SB AIB,Gemeente Almere,Existing,1.4,7.1,9.9,Zwaluwpad,51.8269672,4.8174236,1.4,,1,1,,318630A66B923498E0535B320A0A7C56,Carel Willinklaan,Groengebieden/Parken,Tussen de Vaarten,Almere Stad,146762.356,487921.079
2531,Leeghwaterbrug,Fiets-voetbrug,Steel,2. Good,2017,SB AIB,Gemeente Almere,Existing,3.3,27.3,90.09,Bruinvisbrug,52.3873341,5.23222,3,,7.5,3.5,2077,DB87E7E6-CD18-4365-9B0A-B6EC16583DCE,Leeghwaterpad,Groengebieden/Parken,Waterwijk,Almere Stad,144527.1226,488693.2906
2769,Tollenbrug,Fiets-voetbrug,Steel,2. Good,2017,SB AIB,Gemeente Almere,Existing,3.2,24.6,78.72,Schommelbrug,52.3747266,5.2002742,2.8,,7.5,1.5,2077,FA5331EC-1B02-4633-B161-20FA67CAE3E5,Beatrixpad,Groengebieden/Parken,Kruidenwijk,Almere Stad,142317.2638,487572.1206
2803,Tuinkruidenbrug,Fiets-voetbrug,Steel,2. Good,2017,SB AIB,Gemeente Almere,Existing,5.4,26,140.4,Rozemarijnbrug,51.0499173,3.709594,5,,10.5,2,2077,3BFE6B65-0F48-4385-97D6-38E6DDC65674,Tuinkruidenpad,Groengebieden/Parken,Kruidenwijk,Almere Stad,142442.872,488016.9929
2946,Boelijn,Beweegbare brug,Steel,2. Good,2011,SB AIB,Gemeente Almere,Existing,8.4,37.4,312.3,Boeilijnbrug,,,5.6,,10,2.5,2111,318630A66B783498E0535B320A0A7C56,Boelijn,Groengebieden/Parken,Noorderplassen,Almere Stad,140428.484,490006.703
2961,,Fiets-voetbrug,Steel,2. Good,2011,SB AIB,Gemeente Almere,Existing,1.6,13.1,21,Bosgebied Noorderplassen 6,52.3904917,5.2056654,1.6,,3,0.5,0,318630A66BD13498E0535B320A0A7C56,Noorderleedeweg,Buitengebied,Noorderplassen,Almere Stad,141450.7928,488675.4145
2962,,Fiets-voetbrug,Steel,2. Good,2012,SB AIB,Gemeente Almere,Existing,5.4,11.2,60.5,Noorderleedebrug,,,5.4,,3,1,0,318630A66BF13498E0535B320A0A7C56,Noorderleedeweg,Groengebieden/Parken,Noorderplassen,Almere Stad,141751.3249,488902.7589
2963,,Fiets-voetbrug,Steel,2. Good,2011,SB AIB,Gemeente Almere,Existing,1.6,13.1,21,Noorderleedebrug,,,1.6,,3,0.5,0,318630A66BF93498E0535B320A0A7C56,Noorderleedeweg,Groengebieden/Parken,Noorderplassen,Almere Stad,142107.7581,489041.3918
3059,Koopvaardersbrug,Fiets-voetbrug,Steel,2. Good,2004,SB AIB,Gemeente Almere,Existing,4.4,107.4,429.6,Koopvaardersbrug,52.4087722,5.2958405,4,,15,2.5,2100,318630A66B5F3498E0535B320A0A7C56,Koopvaarderspad,Groengebieden/Parken,Oostvaardersbuurt,Almere Buiten,148782.394,491221.843
3068,Diadeembrug,Fiets-voetbrug,Steel,2. Good,2006,SB AIB,Gemeente Almere,Existing,4,39.3,157.2,Collierpad,,,2.5,,12.3,3,2056,318630A66BFD3498E0535B320A0A7C56,Diadeempad,Groengebieden/Parken,Sieradenbuurt,Almere Buiten,149260.9981,491478.6292
3072,Tiarabrug,Fiets-voetbrug,Steel,2. Good,2006,SB AIB,Gemeente Almere,Existing,4.1,30.2,123.82,Tiarapad,,,2.6,,9.8,1.9,2056,318630A66BD33498E0535B320A0A7C56,Tiarapad,Groengebieden/Parken,Sieradenbuurt,Almere Buiten,149576.8427,491036.0312
3337,Sababrug,Fiets-voetbrug,Steel,2. Good,2001,SB AIB,Gemeente Almere,Existing,4.2,23.8,99.7,Sababrug,52.3931415,5.3086517,0,,,2.1,2100,318630A66AE83498E0535B320A0A7C56,Gerard Monninkpad,Groengebieden/Parken,Eilandenbuurt,Almere Buiten,149655.908,489482.298
3338,Jamaicabrug,Fiets-voetbrug,Steel,2. Good,2001,SB AIB,Gemeente Almere,Existing,4.7,37.9,178.2,Lage Vaart_Jamaicabrug,52.4068223,5.2325036,3.9,,12,2.1,2100,318630A66AE93498E0535B320A0A7C56,Gerard Monninkpad,Groengebieden/Parken,Eilandenbuurt,Almere Buiten,149676.162,489472.611
3340,Arubabrug,Fiets-voetbrug,Steel,2. Good,2001,SB AIB,Gemeente Almere,Existing,4.2,27.1,108.4,Arubabrug,52.3962158,5.3083704,3.9,,11.9,1.7,2100,318630A66AEC3498E0535B320A0A7C56,Curacaopad,Groengebieden/Parken,Eilandenbuurt,Almere Buiten,149637.854,489825.838
3341,Martiniquebrug,Fiets-voetbrug,Steel,2. Good,2001,SB AIB,Gemeente Almere,Existing,4.5,33.8,152.1,Arubabrug,52.3962158,5.3083704,3.9,,,1.7,2100,318630A66AEB3498E0535B320A0A7C56,Curacaopad,Groengebieden/Parken,Eilandenbuurt,Almere Buiten,149649.956,489849.553
3347,,Fiets-voetbrug,Steel,2. Good,2004,SB AIB,Gemeente Almere,Existing,3.5,37.4,130.9,Maldivenbrug,52.3978668,5.3085498,3.5,,12,2,2200,318630A66BD63498E0535B320A0A7C56,Gerrit Schultepad,Groengebieden/Parken,Eilandenbuurt,Almere Buiten,149638.7009,490164.5453
5012,A,Fiets-voetbrug,Steel,2. Good,2012,SB AIB,Gemeente Almere,Existing,3.2,80.2,256.7,Overgooische Zoom,52.3312476,5.2653635,3,,7,0.2,0,318630A66BCE3498E0535B320A0A7C56,Robbenoordbos,Groengebieden/Parken,Overgooi,Almere Haven,146531.8716,482783.314
5015,D,Fiets-voetbrug,Steel,2. Good,2012,SB AIB,Gemeente Almere,Existing,3,27.8,83.4,Overgooische Zoom,52.3312476,5.2653635,2.8,,10,0.2,0,318630A66BFC3498E0535B320A0A7C56,Kloosterbos,Groengebieden/Parken,Overgooi,Almere Haven,146612.7502,482700.2722
5017,F,Fiets-voetbrug,Steel,2. Good,2012,SB AIB,Gemeente Almere,Existing,3,50.8,152.4,Overgooische Zoom,52.3312476,5.2653635,2.8,,7,0.2,0,318630A66BCC3498E0535B320A0A7C56,Maatweg,Groengebieden/Parken,Overgooi,Almere Haven,146836.0378,482611.7215
5031,,Fiets-voetbrug,Steel,2. Good,2012,SB AIB,Gemeente Almere,Existing,4,24.4,97.6,Zwaanplantsoen_Zwaanpad,,,4,,7,2,0,318630A66BC63498E0535B320A0A7C56,Houtduifpad,Groengebieden/Parken,Vogelhorst,Almere Hout,149428.6431,483831.8479
1017,Achterpoort,Verkeersbrug,Underpass,2. Good,1975,SB AIB,Gemeente Almere,Existing,12.7,6.8,86.4,Oosterdreef_Jaagmeent,52.3370382,5.2309296,6.2,2.5,0,0,2300,29D8A297032CC5C5E0500A0A57326FCA,Oosterdreef,Hoofdwegen,De Werven,Almere Haven,144336.761,483081.338
2075,Clare Lennartbrug,Verkeersbrug,Underpass,2. Good,1985,SB AIB,Gemeente Almere,Existing,9.5,11.5,109.3,Hollandsedreef_Literatuurwijk 1,52.362043,5.1883573,7.5,,,,2100,318630A66ABA3498E0535B320A0A7C56,Hollandsedreef,Hoofdwegen,Muziekwijk,Almere Stad,141327.455,486080.645
2763,Prinsenpoort,Verkeersbrug,Underpass,2. Good,1980,SB AIB,Gemeente Almere,Existing,21.2,20,424,Waddendreef_Staatsliedenwijk 2,52.3731386,5.2045779,6.5,0,0,0,2100,29D8A296D281C5C5E0500A0A57326FCA,Waddendreef,Hoofdwegen,Staatsliedenwijk,Almere Stad,143001.769,487388.16
1056,Spanframebrug,Fiets-voetbrug,Wood,2. Good,1988,SB AIB,Gemeente Almere,Existing,3.2,18.2,58.24,Vliegerpark 6,52.3460468,5.2362431,0,0,6,3,2038,29D8A297033FC5C5E0500A0A57326FCA,Pedersenpad,Groengebieden/Parken,De Marken,Almere Haven,144910.906,484173.574
1069,Uitlaatbrug,Fiets-voetbrug,Wood,2. Good,2018,SB AIB,Gemeente Almere,Existing,2,23,46,Uitlaatbrug,33.8676171,-118.2137036,1.3,,7,2.5,2058,B8979AB7-749B-4B72-ADED-0394280F0387,Marktgracht,Groengebieden/Parken,De Werven,Almere Haven,143995.6357,483354.7193
2014,Omroepbrug,Fiets-voetbrug,Wood,2. Good,1988,SB AIB,Gemeente Almere,Existing,1.7,22.5,38.25,Omroepbrug,52.3552876,5.1939758,1.5,0,9,1.8,2028,29D8A297034BC5C5E0500A0A57326FCA,Omroepweg,Groengebieden/Parken,Gooisekant,Almere Stad,141838.26,485281.597
2249,ALM2249,Fiets-voetbrug,Wood,2. Good,2000,SB AIB,Gemeente Almere,History,3,15.8,47.4,Diafragmapad,52.3644703,5.2325378,0,,7,1.5,2040,29D8A296DBBBC5C5E0500A0A57326FCA,Diafragmapad,Groengebieden/Parken,Filmwijk,Almere Stad,144567.461,486120.702
2250,ALM2250,Fiets-voetbrug,Wood,2. Good,2000,SB AIB,Gemeente Almere,History,3,15.8,47.4,Diafragmapad,52.3644703,5.2325378,0,,7,1.5,2040,29D8A2970369C5C5E0500A0A57326FCA,Diafragmapad,Groengebieden/Parken,Filmwijk,Almere Stad,144479.676,486281.782
2326,Impressionistenbrug,Fiets-voetbrug,Wood,2. Good,2005,SB AIB,Gemeente Almere,Existing,3,12.2,36.6,Impressionistenbrug,,,2.6,,7.7,0.6,2045,29D8A296F4F2C5C5E0500A0A57326FCA,Sisleystraat,Groengebieden/Parken,Tussen de Vaarten,Almere Stad,146592.703,486741.06
2328,Goyabrug,Fiets-voetbrug,Wood,2. Good,2005,SB AIB,Gemeente Almere,Existing,3,12.2,36.6,El Goyabrug,,,2.6,,7.7,0.6,2045,29D8A296F4E2C5C5E0500A0A57326FCA,Goyapad,Groengebieden/Parken,Tussen de Vaarten,Almere Stad,146725.159,486802.852
2332,,Fiets-voetbrug,Wood,2. Good,2005,SB AIB,Gemeente Almere,Existing,1.4,13,18.2,Renoirstraat 40~160,52.3687985,5.2614598,0.9,,6.2,0.8,2045,29D8A296F4F1C5C5E0500A0A57326FCA,Matissepad,Groengebieden/Parken,Tussen de Vaarten,Almere Stad,146470.7233,486689.897
2333,,Fiets-voetbrug,Wood,2. Good,2005,SB AIB,Gemeente Almere,Existing,1.4,13,18.2,El Goyabrug,,,0.9,,6.2,0.8,2045,29D8A296F4E3C5C5E0500A0A57326FCA,El Grecostraat,Groengebieden/Parken,Tussen de Vaarten,Almere Stad,146844.11,486856.963
3014,Moskoubrug,Fiets-voetbrug,Wood,2. Good,1986,SB AIB,Gemeente Almere,Existing,4,24.8,99.2,Parijsbrug 2,,,3.6,,9.1,2,2039,29D8A29703B6C5C5E0500A0A57326FCA,Piet Moeskopspad,Groengebieden/Parken,Molenbuurt,Almere Buiten,147671.639,490110.352
3020,Walmolenbrug,Fiets-voetbrug,Wood,2. Good,1986,SB AIB,Gemeente Almere,Existing,4.4,23,101.2,Walmolenbrug 1,52.3999886,5.2646039,4,3.35,8.5,2,2035,29D8A296D22BC5C5E0500A0A57326FCA,Pirellipad,Groengebieden/Parken,Molenbuurt,Almere Buiten,146656.327,490251.35
3022,W.M. Dudokbrug,Fiets-voetbrug,Wood,2. Good,1986,SB AIB,Gemeente Almere,Existing,5,22,110,WM Dudokbrug,52.3983152,5.2607378,4.8,,6.9,2,2038,29D8A296D22CC5C5E0500A0A57326FCA,Pirellipad,Groengebieden/Parken,Bouwmeesterbuurt,Almere Buiten,146391.79,490067.063
3030,Semesterbrug,Fiets-voetbrug,Wood,2. Good,1986,SB AIB,Gemeente Almere,Existing,2.8,28,78.4,Gracht Jaap Edenpad 1,52.4061515,5.2710932,2.5,,8.5,2,2038,29D8A29703BDC5C5E0500A0A57326FCA,Semesterpad,Groengebieden/Parken,Seizoenenbuurt,Almere Buiten,147364.267,490593.387
3032,,Fiets-voetbrug,Wood,2. Good,2013,SB AIB,Gemeente Almere,Existing,3,7.6,22.8,Speeleiland de Meridiaan,52.4073375,5.2719737,,,,,2073,29D8A2970815C5C5E0500A0A57326FCA,Maurice Garinpad,Groengebieden/Parken,Seizoenenbuurt,Almere Buiten,147174.4707,490998.143
3100,,Fiets-voetbrug,Wood,2. Good,2012,SB AIB,Gemeente Almere,Existing,5.2,7.6,35,Speeleiland de Meridiaan,52.4073375,5.2719737,,,1.6,0.7,2052,7EED6E0BEE58966DE0535B320A0AEEF0,Buitenring,Groengebieden/Parken,Seizoenenbuurt,Almere Buiten,147216.8278,491140.4588
3101,,Fiets-voetbrug,Wood,2. Good,2015,SB AIB,Gemeente Almere,Existing,2.8,9.8,27.44,Speeleiland de Meridiaan,52.4073375,5.2719737,,,2,0.7,2055,7EED6E0BEE57966DE0535B320A0AEEF0,Maurice Garinpad,Groengebieden/Parken,Seizoenenbuurt,Almere Buiten,147228.8477,491093.3038
3102,,Fiets-voetbrug,Wood,2. Good,2015,SB AIB,Gemeente Almere,Existing,2.8,10,28,Speeleiland de Meridiaan,52.4073375,5.2719737,,,1.8,0.7,2055,7EED6E0BEE56966DE0535B320A0AEEF0,Maurice Garinpad,Groengebieden/Parken,Seizoenenbuurt,Almere Buiten,147251.9629,491085.907
5014,Overgooi,Fiets-voetbrug,Wood,2. Good,2013,SB AIB,Gemeente Almere,Existing,1.2,66.25,79.5,Overgooische Zoom,52.3312476,5.2653635,1.2,,1.8,0.1,2053,318630A66BEB3498E0535B320A0A7C56,Kloosterbos,Groengebieden/Parken,Overgooi,Almere Haven,146529.1576,482666.3712
8021,,Fiets-voetbrug,Wood,2. Good,2006,SB AIB,Gemeente Almere,Existing,3.7,8.1,29.97,Verbindingspad,,,3.3,,3.9,0.9,2046,29D8A296ED28C5C5E0500A0A57326FCA,Verbindingspad,Buitengebied,Buitenvaart,Almere Buiten,146283.9509,493653.3623
0011,Rechte Weteringpoort,Verkeersbrug,Concrete,3. Reasonable,1981,SB AIB,Gemeente Almere,Existing,12,52.9,325.5,Havendreef_De Laren,51.5869725,5.6063544,3.8,,8.5,3.5,2300,318630A66B583498E0535B320A0A7C56,Farflerpad,Hoofdwegen,overig Almere Haven,Almere Haven,142125.699,484487.868
1020,Meentenbrug,Verkeersbrug,Concrete,3. Reasonable,1977,SB AIB,Gemeente Almere,Existing,12.5,27.5,343.8,Meentenbrug,52.3377224,5.2296825,4.8,2.8,17,2.5,2300,318630A66B723498E0535B320A0A7C56,Lange Wetering,Groengebieden/Parken,De Werven,Almere Haven,144269.598,483325.439
1033,Noordbrug,Verkeersbrug,Concrete,3. Reasonable,1976,SB AIB,Gemeente Almere,Existing,25.3,21.5,544,Paalbrug,52.3448159,5.2188936,6,2.5,10,2,2300,318630A66B4A3498E0535B320A0A7C56,Noorderdreef,Groengebieden/Parken,De Gouwen,Almere Haven,143663.811,484073.202
1061,Stevenspoort,Verkeersbrug,Concrete,3. Reasonable,1984,SB AIB,Gemeente Almere,Existing,10.5,5.5,57.8,Waterlandseweg_Kemphaan 3,52.3410262,5.2696236,7.4,,,,2100,318630A66B613498E0535B320A0A7C56,Waterlandseweg,Hoofdwegen,overig Almere Hout,Almere Hout,146674.5312,483724.7783
2024,Utrechtsepoort,Fiets-voetbrug,Concrete,3. Reasonable,1988,SB AIB,Gemeente Almere,Existing,6,45,270,Stedendreef 3,52.372331,5.2021837,5,,,,2100,29D8A2970350C5C5E0500A0A57326FCA,Stedendreef,Hoofdwegen,Muziekwijk,Almere Stad,142405.814,486324.818
2060,,Fiets-voetbrug,Concrete,3. Reasonable,2002,Stadsruimte,Gemeente Almere,Existing,5.4,47.9,258.66,Hogering_Literatuurwijk 1,52.3553533,5.172619,4.8,,0,0,2082,CAF9682796AF4A579C3A91C3C6C0AD10,Spoorbaanpad,Hoofdwegen,Literatuurwijk,Almere Stad,140307.9962,485656.515
2247,1e en 2e Boegdreefbrug,Fiets-voetbrug,Concrete,3. Reasonable,2013,SB AIB,Gemeente Almere,Existing,7.72,35,270.2,Judy Garlandbrug,52.3710598,5.2257219,4,,2.25,4,2103,1BA533C0-C16A-4883-8247-3274527DD68E,Stadswetering,Groengebieden/Parken,Centrum Almere Stad,Almere Stad,144018.7264,487017.2299
2256,Judy Garlandbrug,Verkeersbrug,Concrete,3. Reasonable,2013,SB AIB,Gemeente Almere,Existing,11,285,3135,Judy Garlandbrug,52.3710598,5.2257219,7,2.2,4,2.25,2103,29D8A296FC15C5C5E0500A0A57326FCA,Stadswetering,Groengebieden/Parken,Centrum Almere Stad,Almere Stad,144001.01,487034.001
2260,Sturmeybrug,Verkeersbrug,Concrete,3. Reasonable,1989,SB AIB,Gemeente Almere,Existing,15,91.2,1368,Weerwater_Filmwijk Zuid,52.3593844,5.2212343,5,2.5,12.4,3,2069,318630A66B3D3498E0535B320A0A7C56,Kromme wetering,Groengebieden/Parken,overig Almere Stad,Almere Stad,145136.656,485119.179
2296,Fellinibrug,Verkeersbrug,Concrete,3. Reasonable,1995,SB AIB,Gemeente Almere,Existing,6.2,24,149,Weerwater_Filmwijk Zuid,52.3593844,5.2212343,5.6,,9,2,2100,318630A66B3C3498E0535B320A0A7C56,Fongerspad,Groengebieden/Parken,overig Almere Stad,Almere Stad,145158.844,485360.994
2321,Velazquesbrug,Verkeersbrug,Concrete,3. Reasonable,2002,SB AIB,Gemeente Almere,Existing,7.7,30.2,232.5,Michelangelobrug,51.2046484,3.2244695,4.5,,8,1.8,2100,318630A66B2C3498E0535B320A0A7C56,Velazquezstraat,Groengebieden/Parken,Tussen de Vaarten,Almere Stad,146990.252,486870.338
2322,Botticellibrug,Verkeersbrug,Concrete,3. Reasonable,2002,SB AIB,Gemeente Almere,Existing,3.5,29.95,104.8,Michelangelobrug,51.2046484,3.2244695,2.9,,8,1.9,2100,318630A66AEE3498E0535B320A0A7C56,Botticellipad,Groengebieden/Parken,Tussen de Vaarten,Almere Stad,146924.711,487001.405
2522,Vleetpoort,Verkeersbrug,Concrete,3. Reasonable,1981,SB AIB,Gemeente Almere,Existing,11.4,22.7,259,Bruinvisbrug,52.3873341,5.23222,5,2.6,14.8,2.5,2100,318630A66AA73498E0535B320A0A7C56,Vleetpoort,Groengebieden/Parken,Waterwijk,Almere Stad,144394.003,488945.97
2760,Parkweteringpoort,Fiets-voetbrug,Concrete,3. Reasonable,1990,Stadsruimte,Gemeente Almere,Existing,5.7,28.1,160.17,Leger des Heils,27.9592941,-82.4596988,4.8,,,,2070,29D8A296FDE0C5C5E0500A0A57326FCA,Spoordreef,Bedrijventerreinen,Centrum Almere Stad,Almere Stad,143299.799,487410.192
2805,Koreanderbrug,Verkeersbrug,Concrete,3. Reasonable,1984,SB AIB,Gemeente Almere,Existing,9.2,16.2,149,Basilicumbrug,52.3797935,5.2086013,5.5,,15,2,2100,318630A66B033498E0535B320A0A7C56,Korianderweg,Groengebieden/Parken,Kruidenwijk,Almere Stad,142813.41,487810.854
